[{"id":1,"iata":"AAA","icao":"NTGA","name":"Anaa Airport","location":"Anaa, Tuamotus, French Polynesia","street_number":"","street":"","city":"","county":"Tuamotus Islands","state":"","country_iso":"PF","country":"French Polynesia","postal_code":"","phone":"","latitude":-16.68686,"longitude":-145.33267,"uct":-600,"website":""},{"id":3,"iata":"AAC","icao":"HEAR","name":"El Arish International Airport","location":"El Arish, Egypt","street_number":"","street":"","city":"","county":"Qesm Thaleth Al Arish","state":"North Sinai Governorate","country_iso":"EG","country":"Egypt","postal_code":"","phone":"","latitude":31.07809,"longitude":33.836075,"uct":120,"website":""},{"id":5,"iata":"AAE","icao":"DABB","name":"Rabah Bitat Airport (Les Salines Airport)","location":"Annaba, Algeria","street_number":"","street":"","city":"Annaba","county":"","state":"Annaba Province","country_iso":"DZ","country":"Algeria","postal_code":"","phone":"+213 38 59 00 01","latitude":36.82406,"longitude":7.8215694,"uct":60,"website":"http://www.aeroport-d-annaba-rabah-bitat.com/"},{"id":12,"iata":"AAL","icao":"EKYT","name":"Aalborg Airport","location":"Aalborg, Denmark","street_number":"100","street":"Ny Lufthavnsvej","city":"Nørresundby","county":"","state":"","country_iso":"DK","country":"Denmark","postal_code":"9400","phone":"+45 98 17 11 44","latitude":57.09692,"longitude":9.856463,"uct":120,"website":"http://www.aal.dk/"},{"id":13,"iata":"AAM","icao":"FAMD","name":"Mala Mala Airport","location":"Mala Mala, South Africa","street_number":"","street":"","city":"Kruger Park","county":"Ehlanzeni","state":"Mpumalanga","country_iso":"ZA","country":"South Africa","postal_code":"","phone":"","latitude":-24.815424,"longitude":31.543955,"uct":120,"website":""},{"id":14,"iata":"AAN","icao":"OMAL","name":"Al Ain International Airport","location":"Al Ain, United Arab Emirates","street_number":"","street":"","city":"Al Ain","county":"Eastern Region","state":"Abu Dhabi","country_iso":"AE","country":"United Arab Emirates","postal_code":"","phone":"+971 2 505 5000","latitude":24.258514,"longitude":55.61944,"uct":240,"website":"http://www.adac.ae/english/what-we-do/airports/al-ain-international-airport"},{"id":16,"iata":"AAQ","icao":"URKA","name":"Anapa Airport","location":"Anapa, Krasnodar Krai, Russia","street_number":"","street":"Анапа-7","city":"п. Витязево","county":"Anapsky District","state":"Krasnodarskiy kray","country_iso":"RU","country":"Russia","postal_code":"353419","phone":"+7 800 301-19-91","latitude":45.003014,"longitude":37.340843,"uct":180,"website":""},{"id":17,"iata":"AAR","icao":"EKAH","name":"Aarhus Airport","location":"Aarhus, Denmark","street_number":"24","street":"Ny Lufthavnsvej","city":"Kolind","county":"","state":"","country_iso":"DK","country":"Denmark","postal_code":"8560","phone":"+45 87 75 70 00","latitude":56.307514,"longitude":10.628102,"uct":120,"website":"http://www.aar.dk/"},{"id":19,"iata":"AAT","icao":"ZWAT","name":"Altay Airport","location":"Altay, Xinjiang, China","street_number":"","street":"","city":"","county":"","state":"","country_iso":"","country":"","postal_code":"","phone":"","latitude":0,"longitude":0,"uct":0,"website":""},{"id":23,"iata":"AAY","icao":"OYGD","name":"Al Ghaydah Airport","location":"Al Ghaydah, Yemen","street_number":"","street":"","city":"Salalah","county":"","state":"Dhofar Governorate","country_iso":"OM","country":"Oman","postal_code":"","phone":"+968 23 367461","latitude":17.048855,"longitude":54.087547,"uct":240,"website":"http://salalahairport.co.om/"},{"id":25,"iata":"ABA","icao":"UNAA","name":"Abakan International Airport","location":"Abakan, Republic of Khakassia, Russia","street_number":"59","street":"улица Дружбы Народов","city":"Abakan","county":"","state":"Khakasiya Republits","country_iso":"RU","country":"Russia","postal_code":"655008","phone":"+7 390 228-28-54","latitude":53.751186,"longitude":91.399734,"uct":420,"website":"http://abakan-airport.ru/"},{"id":28,"iata":"ABD","icao":"OIAA","name":"Abadan International Airport","location":"Abadan, Iran","street_number":"","street":"بلوار بهارستان","city":"Abadan","county":"","state":"Khuzestan Province","country_iso":"IR","country":"Iran","postal_code":"","phone":"+98 61 5336 6494","latitude":30.364117,"longitude":48.22691,"uct":210,"website":""},{"id":29,"iata":"ABE","icao":"KABE","name":"Lehigh Valley International Airport","location":"Allentown, Pennsylvania, United States","street_number":"3311","street":"Airport Road","city":"Allentown","county":"Lehigh County","state":"Pennsylvania","country_iso":"US","country":"United States","postal_code":"18109","phone":"+1 610-266-6000","latitude":40.651833,"longitude":-75.441414,"uct":-240,"website":"http://www.flylvia.com/"},{"id":33,"iata":"ABI","icao":"KABI","name":"Abilene Regional Airport","location":"Abilene, Texas, United States","street_number":"2933","street":"Airport Boulevard","city":"Abilene","county":"Taylor County","state":"Texas","country_iso":"US","country":"United States","postal_code":"79602","phone":"+1 325-676-6367","latitude":32.411896,"longitude":-99.680046,"uct":-300,"website":"http://iflyabi.com/"},{"id":34,"iata":"ABJ","icao":"DIAP","name":"Port Bouet Airport (Felix Houphouet Boigny Int'l)","location":"Abidjan, Côte d'Ivoire","street_number":"","street":"","city":"Abidjan","county":"Abidjan","state":"Abidjan","country_iso":"CI","country":"Côte d'Ivoire","postal_code":"","phone":"+225 21 75 79 00","latitude":5.2544694,"longitude":-3.9296293,"uct":0,"website":"http://www.aeria-ci.com/"},{"id":35,"iata":"ABK","icao":"HAKD","name":"Kabri Dar Airport","location":"Kebri Dahar, Ethiopia","street_number":"","street":"","city":"Kebri Dehar","county":"Korahe","state":"Somali","country_iso":"ET","country":"Ethiopia","postal_code":"","phone":"","latitude":6.733082,"longitude":44.242275,"uct":180,"website":""},{"id":41,"iata":"ABQ","icao":"KABQ","name":"Albuquerque International Sunport","location":"Albuquerque, New Mexico, United States","street_number":"2200","street":"Sunport Blvd","city":"Albuquerque","county":"Bernalillo County","state":"New Mexico","country_iso":"US","country":"United States","postal_code":"87106","phone":"+1 505-244-7700","latitude":35.043335,"longitude":-106.61291,"uct":-360,"website":"http://www.cabq.gov/airport/"},{"id":42,"iata":"ABR","icao":"KABR","name":"Aberdeen Regional Airport","location":"Aberdeen, South Dakota, United States","street_number":"4740","street":"6th Avenue Southeast","city":"Aberdeen","county":"Brown County","state":"South Dakota","country_iso":"US","country":"United States","postal_code":"57401","phone":"+1 605-626-7020","latitude":45.453457,"longitude":-98.417725,"uct":-300,"website":"http://www.aberdeenregionalairport.us/"},{"id":43,"iata":"ABS","icao":"HEBL","name":"Abu Simbel Airport","location":"Abu Simbel, Egypt","street_number":"","street":"","city":"","county":"Qesm Al Wahat Al Khargah","state":"New Valley Governorate","country_iso":"EG","country":"Egypt","postal_code":"","phone":"","latitude":22.367252,"longitude":31.610336,"uct":120,"website":"http://www.egyptair.com/"},{"id":44,"iata":"ABT","icao":"OEBA","name":"Al-Baha Domestic Airport","location":"Al-Baha, Saudi Arabia","street_number":"","street":"","city":"Al Bahah","county":"","state":"Al Bahah Province","country_iso":"SA","country":"Saudi Arabia","postal_code":"","phone":"","latitude":20.02174,"longitude":41.47127,"uct":180,"website":""},{"id":46,"iata":"ABV","icao":"DNAA","name":"Nnamdi Azikiwe International Airport","location":"Abuja, Nigeria","street_number":"","street":"","city":"Abuja","county":"Municipal Area Coun","state":"Federal Capital Territory","country_iso":"NG","country":"Nigeria","postal_code":"","phone":"","latitude":9.004025,"longitude":7.2690525,"uct":60,"website":"http://www.faan.gov.ng/nnamdi-azikwe-international-airport/"},{"id":48,"iata":"ABX","icao":"YMAY","name":"Albury Airport","location":"Albury, New South Wales, Australia","street_number":"121","street":"Airport Drive","city":"East Albury","county":"Albury City Council","state":"New South Wales","country_iso":"AU","country":"Australia","postal_code":"2640","phone":"+61 2 6043 5865","latitude":-36.06841,"longitude":146.95454,"uct":660,"website":"http://flyalbury.com.au/"},{"id":49,"iata":"ABY","icao":"KABY","name":"Southwest Georgia Regional Airport","location":"Albany, Georgia, United States","street_number":"3905","street":"Newton Road","city":"Albany","county":"Dougherty County","state":"Georgia","country_iso":"US","country":"United States","postal_code":"31701","phone":"+1 229-430-5175","latitude":31.535671,"longitude":-84.19391,"uct":-240,"website":"http://airport.albanyga.gov/"},{"id":50,"iata":"ABZ","icao":"EGPD","name":"Aberdeen Airport","location":"Aberdeen, Scotland, United Kingdom","street_number":"","street":"","city":"Dyce","county":"Aberdeen City","state":"Scotland","country_iso":"GB","country":"United Kingdom","postal_code":"AB21 7DU","phone":"+44 344 481 6666","latitude":57.203697,"longitude":-2.200162,"uct":60,"website":"http://www.aberdeenairport.com/"},{"id":51,"iata":"ACA","icao":"MMAA","name":"General Juan N. Álvarez International Airport","location":"Acapulco, Guerrero, Mexico","street_number":"S/N","street":"Plan de Los Amates","city":"Acapulco","county":"","state":"Guerrero","country_iso":"MX","country":"Mexico","postal_code":"39931","phone":"+52 744 435 2060","latitude":16.76182,"longitude":-99.75439,"uct":-300,"website":"https://www.oma.aero/es/pasajeros/acapulco/"},{"id":53,"iata":"ACC","icao":"DGAA","name":"Kotoka International Airport","location":"Accra, Ghana","street_number":"","street":"Airport Road","city":"Accra","county":"Accra Metropolis","state":"Greater Accra Region","country_iso":"GH","country":"Ghana","postal_code":"","phone":"+233 30 277 6171","latitude":5.6060953,"longitude":-0.1681235,"uct":0,"website":"http://www.gacl.com.gh/"},{"id":55,"iata":"ACE","icao":"GCRR","name":"Lanzarote Airport","location":"Lanzarote, Canary Islands, Spain","street_number":"","street":"","city":"","county":"Las Palmas","state":"Canary Islands","country_iso":"ES","country":"Spain","postal_code":"","phone":"+34 913 21 10 00","latitude":28.950438,"longitude":-13.605777,"uct":60,"website":"http://www.aena-aeropuertos.es/es/aeropuerto-lanzarote/index.html"},{"id":56,"iata":"ACH","icao":"LSZR","name":"St. Gallen–Altenrhein Airport","location":"Altenrhein, Switzerland","street_number":"11","street":"Flughafenstrasse","city":"Thal","county":"Rorschach","state":"Sankt Gallen","country_iso":"CH","country":"Switzerland","postal_code":"9423","phone":"+41 71 858 51 65","latitude":47.485874,"longitude":9.560018,"uct":120,"website":"http://www.peoples.ch/"},{"id":57,"iata":"ACI","icao":"EGJA","name":"Alderney Airport","location":"Alderney, Channel Islands, United Kingdom","street_number":"","street":"","city":"Saint Anne","county":"","state":"Alderney","country_iso":"GG","country":"Guernsey","postal_code":"GY9","phone":"+44 1481 822624","latitude":49.70875,"longitude":-2.2148435,"uct":60,"website":"http://alderney.gov.gg/article/4153/Airport"},{"id":59,"iata":"ACK","icao":"KACK","name":"Nantucket Memorial Airport","location":"Nantucket, Massachusetts, United States","street_number":"14","street":"Airport Road","city":"Nantucket","county":"Nantucket County","state":"Massachusetts","country_iso":"US","country":"United States","postal_code":"2554","phone":"+1 508-325-5300","latitude":41.25695,"longitude":-70.06375,"uct":-240,"website":"http://www.nantucketairport.com/"},{"id":66,"iata":"ACT","icao":"KACT","name":"Waco Regional Airport","location":"Waco, Texas, United States","street_number":"7909","street":"Karl May Drive","city":"Waco","county":"McLennan County","state":"Texas","country_iso":"US","country":"United States","postal_code":"76708","phone":"+1 254-750-8656","latitude":31.61359,"longitude":-97.22629,"uct":-300,"website":"http://www.waco-texas.com/Airport/index.asp"},{"id":68,"iata":"ACV","icao":"KACV","name":"Arcata-Eureka Airport","location":"Eureka / Arcata, California, United States","street_number":"3561","street":"Boeing Avenue","city":"McKinleyville","county":"Humboldt County","state":"California","country_iso":"US","country":"United States","postal_code":"95519","phone":"+1 707-839-5401","latitude":40.97092,"longitude":-124.10658,"uct":-420,"website":"http://co.humboldt.ca.us/aviation/content.asp?page=airport_and_airline_information.htm"},{"id":69,"iata":"ACX","icao":"ZUYI","name":"Xingyi Wanfenglin Airport","location":"Xingyi, Guizhou, China","street_number":"","street":"","city":"Qianxinan","county":"","state":"","country_iso":"CN","country":"China","postal_code":"","phone":"","latitude":25.085556,"longitude":104.95944,"uct":480,"website":""},{"id":70,"iata":"ACY","icao":"KACY","name":"Atlantic City International Airport","location":"Atlantic City, New Jersey, United States","street_number":"101","street":"Atlantic City International Airport","city":"Egg Harbor Township","county":"Atlantic County","state":"New Jersey","country_iso":"US","country":"United States","postal_code":"8234","phone":"+1 609-645-7895","latitude":39.455776,"longitude":-74.57251,"uct":-240,"website":"http://www.sjta.com/acairport/"},{"id":72,"iata":"ADA","icao":"LTAF","name":"Adana Şakirpaşa Airport","location":"Adana, Turkey","street_number":"","street":"Turhan Cemal Beriker Bulvarı","city":"","county":"Seyhan","state":"Adana","country_iso":"TR","country":"Turkey","postal_code":"1000","phone":"+90 322 435 03 80","latitude":36.985855,"longitude":35.288155,"uct":180,"website":"http://adana.dhmi.gov.tr/havaalanlari/sayfa.aspx?hv=7&mnu=1299"},{"id":73,"iata":"ADB","icao":"LTBJ","name":"Adnan Menderes Airport","location":"İzmir, Turkey","street_number":"","street":"","city":"","county":"Gaziemir","state":"İzmir","country_iso":"TR","country":"Turkey","postal_code":"35425","phone":"+90 232 455 00 00","latitude":38.293762,"longitude":27.152029,"uct":180,"website":"http://www.adnanmenderesairport.com/"},{"id":75,"iata":"ADD","icao":"HAAB","name":"Bole International Airport","location":"Addis Ababa, Ethiopia","street_number":"","street":"","city":"Addis Ababa","county":"North Shewa(R4)","state":"Oromia","country_iso":"ET","country":"Ethiopia","postal_code":"","phone":"+251 11 665 6666","latitude":8.980069,"longitude":38.79893,"uct":180,"website":"http://addisairport.com/"},{"id":76,"iata":"ADE","icao":"OYAA","name":"Aden International Airport","location":"Aden, Yemen","street_number":"","street":"","city":"Aden","county":"Khormaksar","state":"Adan Governorate","country_iso":"YE","country":"Yemen","postal_code":"","phone":"+967 774 866 418","latitude":12.825377,"longitude":45.03709,"uct":180,"website":""},{"id":77,"iata":"ADF","icao":"LTCP","name":"Adıyaman Airport","location":"Adıyaman, Turkey","street_number":"","street":"","city":"","county":"Adıyaman Merkez","state":"Adıyaman","country_iso":"TR","country":"Turkey","postal_code":"2000","phone":"+90 416 244 22 12","latitude":37.73427,"longitude":38.471996,"uct":180,"website":"http://www.adiyaman.dhmi.gov.tr/"},{"id":81,"iata":"ADJ","icao":"OJAM","name":"Amman Civil Airport (Marka International Airport)","location":"Amman, Jordan","street_number":"22","street":"Al Mataar St","city":"Amman","county":"","state":"Amman Governorate","country_iso":"JO","country":"Jordan","postal_code":"11134","phone":"+962 6 567 9467","latitude":31.97485,"longitude":35.983246,"uct":180,"website":"http://www.qaiairport.com/en"},{"id":82,"iata":"ADK","icao":"PADK","name":"Adak Airport","location":"Adak Island, Alaska, United States","street_number":"","street":"","city":"Adak","county":"Aleutians West","state":"Alaska","country_iso":"US","country":"United States","postal_code":"99546","phone":"+1 907-592-4500","latitude":51.881317,"longitude":-176.64822,"uct":-540,"website":"https://adak-ak.us/"},{"id":83,"iata":"ADL","icao":"YPAD","name":"Adelaide Airport","location":"Adelaide, South Australia, Australia","street_number":"1","street":"James Schofield Drive","city":"Adelaide Airport","county":"City of West Torrens","state":"South Australia","country_iso":"AU","country":"Australia","postal_code":"5950","phone":"+61 8 8308 9211","latitude":-34.946156,"longitude":138.53323,"uct":630,"website":"http://www.adelaideairport.com.au/?utm_source=Adelaide&utm_medium=james-schofield5950&utm_campaign=google-place-listing"},{"id":88,"iata":"ADQ","icao":"PADQ","name":"Kodiak Airport","location":"Kodiak, Alaska, United States","street_number":"1427","street":"Airport Way","city":"Kodiak","county":"Kodiak Island","state":"Alaska","country_iso":"US","country":"United States","postal_code":"99615","phone":"+1 907-487-4363","latitude":57.754326,"longitude":-152.51695,"uct":-480,"website":"https://nfdc.faa.gov/nfdcApps/airportLookup/airportDisplay.jsp?airportId=ADQ"},{"id":92,"iata":"ADU","icao":"OITL","name":"Ardabil Airport","location":"Ardabil, Iran","street_number":"","street":"16","city":"Ardabil","county":"","state":"Ardabil Province","country_iso":"IR","country":"Iran","postal_code":"","phone":"+98 45 3344 7901","latitude":38.324066,"longitude":48.42015,"uct":210,"website":"https://ardabil.airport.ir/"},{"id":97,"iata":"ADZ","icao":"SKSP","name":"Gustavo Rojas Pinilla International Airport","location":"San Andres Island, Colombia","street_number":"","street":"","city":"","county":"San Andrés","state":"San Andrés","country_iso":"CO","country":"Colombia","postal_code":"880001","phone":"+57 8 5126112","latitude":12.586117,"longitude":-81.702156,"uct":-300,"website":"http://www.aerocivil.gov.co/aeropuertos/Pages/San-Andr%C3%A9s,-Gustavo-Rojas-Pinilla.aspx"},{"id":99,"iata":"AEB","icao":"ZGBS","name":"Baise Bama Airport","location":"Baise, Guangxi, China","street_number":"42号","street":"Zhongshan 1st Road","city":"Baise Shi","county":"","state":"Guangxi Zhuangzuzizhiqu","country_iso":"CN","country":"China","postal_code":"","phone":"+86 776 323 3666","latitude":23.716698,"longitude":106.97122,"uct":480,"website":""},{"id":101,"iata":"AEG","icao":"WIME","name":"Aek Godang Airport","location":"Padang Sidempuan, Indonesia","street_number":"","street":"","city":"","county":"North Padang Lawas Regency","state":"North Sumatra","country_iso":"ID","country":"Indonesia","postal_code":"22733","phone":"","latitude":1.400112,"longitude":99.42993,"uct":420,"website":""},{"id":102,"iata":"AEH","icao":"FTTC","name":"Abéché Airport","location":"Abéché, Chad","street_number":"","street":"","city":"Abeche","county":"Ouara","state":"Ouaddai","country_iso":"TD","country":"Chad","postal_code":"","phone":"","latitude":13.844667,"longitude":20.849396,"uct":60,"website":""},{"id":107,"iata":"AEP","icao":"SABE","name":"Jorge Newbery Airpark","location":"Buenos Aires, Argentina","street_number":"s/n","street":"Avenida Costanera Rafael Obligado","city":"","county":"Comuna 14","state":"Buenos Aires","country_iso":"AR","country":"Argentina","postal_code":"C1425","phone":"+54 11 5480-6111","latitude":-34.55803,"longitude":-58.417007,"uct":-180,"website":"http://www.aa2000.com.ar/"},{"id":108,"iata":"AER","icao":"URSS","name":"Sochi International Airport","location":"Sochi, Krasnodar Krai, Russia","street_number":"177а","street":"Ulitsa Mira","city":"Adler","county":"City of Sochi","state":"Krasnodarskiy kray","country_iso":"RU","country":"Russia","postal_code":"354355","phone":"+7 800 301-19-91","latitude":43.445015,"longitude":39.943867,"uct":180,"website":"http://basel.aero/sochi/"},{"id":109,"iata":"AES","icao":"ENAL","name":"Ålesund Airport, Vigra","location":"Ålesund, Norway","street_number":"27","street":"Flyplassvegen","city":"","county":"Giske","state":"Møre og Romsdal","country_iso":"NO","country":"Norway","postal_code":"6040","phone":"","latitude":62.558655,"longitude":6.1152782,"uct":120,"website":"https://avinor.no/flyplass/alesund/kontakt-oss/#!kontakt-flyplassen-3666"},{"id":111,"iata":"AEU","icao":"OIBA","name":"Abu Musa Airport","location":"Abu Musa Island, Iran","street_number":"","street":"Persian Gulf Street","city":"Abu Musa","county":"","state":"","country_iso":"IR","country":"Iran","postal_code":"","phone":"+98 76 3562 3386","latitude":25.878654,"longitude":55.025543,"uct":210,"website":"https://airport.ir/"},{"id":112,"iata":"AEX","icao":"KAEX","name":"Alexandria International Airport","location":"Alexandria, Louisiana, United States","street_number":"1100","street":"Frank Andrews Boulevard","city":"Alexandria","county":"Rapides Parish","state":"Louisiana","country_iso":"US","country":"United States","postal_code":"71303","phone":"+1 318-449-3504","latitude":31.327412,"longitude":-92.54519,"uct":-300,"website":"http://www.englandairpark.org/aex"},{"id":113,"iata":"AEY","icao":"BIAR","name":"Akureyri Airport","location":"Akureyri, Iceland","street_number":"","street":"","city":"Akureyri","county":"","state":"","country_iso":"IS","country":"Iceland","postal_code":"","phone":"+354 424 4000","latitude":65.65462,"longitude":-18.075596,"uct":0,"website":"http://www.isavia.is/flugvellir/akureyrarflugvollur/"},{"id":114,"iata":"AFA","icao":"SAMR","name":"San Rafael Airport","location":"San Rafael, Mendoza, Argentina","street_number":"400","street":"Smith Ranch Road","city":"San Rafael","county":"Marin County","state":"California","country_iso":"US","country":"United States","postal_code":"94903","phone":"+1 415-472-7700","latitude":38.017185,"longitude":-122.521545,"uct":-420,"website":""},{"id":119,"iata":"AFL","icao":"SBAT","name":"Alta Floresta Airport","location":"Alta Floresta, Mato Grosso, Brazil","street_number":"","street":"","city":"","county":"Alta Floresta","state":"State of Mato Grosso","country_iso":"BR","country":"Brazil","postal_code":"78580-000","phone":"+55 66 3521-2226","latitude":-9.872357,"longitude":-56.105198,"uct":-240,"website":""},{"id":127,"iata":"AFZ","icao":"OIMS","name":"Sabzevar Airport","location":"Sabzevar, Iran","street_number":"","street":"","city":"Sabzevar","county":"","state":"Razavi Khorasan Province","country_iso":"IR","country":"Iran","postal_code":"","phone":"+98 51 4444 9100","latitude":36.171246,"longitude":57.603333,"uct":210,"website":"https://sabzevar.airport.ir/"},{"id":142,"iata":"AGP","icao":"LEMG","name":"Málaga Airport","location":"Málaga, Andalusia, Spain","street_number":"s/n","street":"Avenida del Comandante García Morato","city":"Málaga","county":"Málaga","state":"Andalucía","country_iso":"ES","country":"Spain","postal_code":"29004","phone":"+34 913 21 10 00","latitude":36.679115,"longitude":-4.494509,"uct":120,"website":"http://www.aena.es/es/aeropuerto-malaga/index.html"},{"id":144,"iata":"AGR","icao":"VIAG","name":"Agra Airport","location":"Agra, Uttar Pradesh, India","street_number":"","street":"","city":"Agra","county":"Agra","state":"Uttar Pradesh","country_iso":"IN","country":"India","postal_code":"282001","phone":"+91 562 240 0844","latitude":27.152697,"longitude":77.961754,"uct":330,"website":"http://www.aai.aero/"},{"id":145,"iata":"AGS","icao":"KAGS","name":"Augusta Regional Airport at Bush Field","location":"Augusta, Georgia, United States","street_number":"1501","street":"Aviation Way","city":"Augusta","county":"Richmond County","state":"Georgia","country_iso":"US","country":"United States","postal_code":"30906","phone":"+1 706-798-3236","latitude":33.368855,"longitude":-81.96577,"uct":-240,"website":"http://www.flyags.com/"},{"id":146,"iata":"AGT","icao":"SGES","name":"Guaraní International Airport","location":"Ciudad del Este, Paraguay","street_number":"","street":"Ruta Internacional 7","city":"Minga Guazú","county":"Minga Guazú","state":"Departamento de Alto Paraná","country_iso":"PY","country":"Paraguay","postal_code":"","phone":"","latitude":-25.4555,"longitude":-54.843594,"uct":-180,"website":"http://www.dinac.gov.py/"},{"id":147,"iata":"AGU","icao":"MMAS","name":"Lic. Jesús Terán Peredo International Airport","location":"Aguascalientes, Aguascalientes, Mexico","street_number":"","street":"","city":"Aguascalientes","county":"","state":"Aguascalientes","country_iso":"MX","country":"Mexico","postal_code":"20340","phone":"+52 449 918 2806","latitude":21.701298,"longitude":-102.31623,"uct":-300,"website":"https://www.aeropuertosgap.com.mx/es/aguascalientes.html"},{"id":148,"iata":"AGV","icao":"SVAC","name":"Oswaldo Guevara Mujica Airport","location":"Acarigua, Venezuela","street_number":"","street":"","city":"","county":"","state":"","country_iso":"","country":"","postal_code":"","phone":"","latitude":0,"longitude":0,"uct":0,"website":""},{"id":150,"iata":"AGX","icao":"VOAT","name":"Agatti Aerodrome","location":"Agatti Island, Lakshadweep, India","street_number":"","street":"","city":"Agatti","county":"Lakshadweep","state":"Lakshadweep","country_iso":"IN","country":"India","postal_code":"682553","phone":"+91 4894 242 615","latitude":10.828119,"longitude":72.179306,"uct":330,"website":"https://www.aai.aero/"},{"id":152,"iata":"AHB","icao":"OEAB","name":"Abha Regional Airport","location":"Abha, Saudi Arabia","street_number":"","street":"","city":"Abha","county":"","state":"Aseer Province","country_iso":"SA","country":"Saudi Arabia","postal_code":"","phone":"+966 9200 11233","latitude":18.234816,"longitude":42.657734,"uct":180,"website":"https://gaca.gov.sa/web/ar-sa/airport/abha-airport-abha"},{"id":155,"iata":"AHE","icao":"NTHE","name":"Ahe Airport","location":"Ahe, Tuamotus, French Polynesia","street_number":"","street":"","city":"","county":"Tuamotus Islands","state":"","country_iso":"PF","country":"French Polynesia","postal_code":"","phone":"","latitude":-14.42755,"longitude":-146.25626,"uct":-600,"website":""},{"id":165,"iata":"AHU","icao":"GMTA","name":"Cherif Al Idrissi Airport","location":"Al Hoceima, Morocco","street_number":"","street":"","city":"","county":"","state":"","country_iso":"","country":"","postal_code":"","phone":"","latitude":0,"longitude":0,"uct":0,"website":""},{"id":190,"iata":"AJA","icao":"LFKJ","name":"Ajaccio Napoleon Bonaparte Airport","location":"Ajaccio, Corsica, France","street_number":"","street":"Route de Campo Dell Oro","city":"Ajaccio","county":"Corse-du-Sud","state":"Corse","country_iso":"FR","country":"France","postal_code":"20090","phone":"+33 4 95 23 56 56","latitude":41.920216,"longitude":8.794628,"uct":120,"website":"http://www.2a.cci.fr/Aeroport-Napoleon-Bonaparte-Ajaccio.html"},{"id":192,"iata":"AJI","icao":"LTCO","name":"Ağrı Airport","location":"Ağrı, Turkey","street_number":"","street":"","city":"","county":"Ağrı Merkez","state":"Ağrı","country_iso":"TR","country":"Turkey","postal_code":"4000","phone":"+90 472 216 04 00","latitude":39.65457,"longitude":43.020874,"uct":180,"website":"http://www.agri.dhmi.gov.tr/"},{"id":195,"iata":"AJL","icao":"VELP","name":"Lengpui Airport","location":"Aizawl, Mizoram, India","street_number":"","street":"","city":"Aizawl","county":"Mamit","state":"Mizoram","country_iso":"IN","country":"India","postal_code":"796421","phone":"+91 389 257 3233","latitude":23.838848,"longitude":92.62417,"uct":330,"website":""},{"id":196,"iata":"AJN","icao":"FMCV","name":"Ouani Airport","location":"Anjouan, Comoros","street_number":"","street":"","city":"Ouani","county":"Quani","state":"Nzwani","country_iso":"KM","country":"Comoros","postal_code":"","phone":"","latitude":-12.133332,"longitude":44.429672,"uct":180,"website":""},{"id":199,"iata":"AJU","icao":"SBAR","name":"Santa Maria Airport","location":"Aracaju, Sergipe, Brazil","street_number":"3249","street":"Terminal Drive","city":"Santa Maria","county":"Santa Barbara County","state":"California","country_iso":"US","country":"United States","postal_code":"93455","phone":"+1 805-922-1726","latitude":34.89914,"longitude":-120.44778,"uct":-420,"website":"http://www.santamariaairport.com/"},{"id":200,"iata":"AJY","icao":"DRZA","name":"Mano Dayak International Airport","location":"Agadez, Niger","street_number":"","street":"","city":"Agadez","county":"Tchirozerine","state":"Agadez Region","country_iso":"NE","country":"Niger","postal_code":"","phone":"+227 91 33 10 16","latitude":16.964167,"longitude":7.993056,"uct":60,"website":""},{"id":206,"iata":"AKF","icao":"HLKF","name":"Kufra Airport","location":"Kufra, Libya","street_number":"","street":"","city":"Al-Jawf","county":"","state":"Kufra District","country_iso":"LY","country":"Libya","postal_code":"","phone":"","latitude":24.176666,"longitude":23.313334,"uct":120,"website":""},{"id":212,"iata":"AKL","icao":"NZAA","name":"Auckland Airport","location":"Auckland, New Zealand","street_number":"","street":"Ray Emery Drive","city":"Auckland","county":"","state":"Auckland","country_iso":"NZ","country":"New Zealand","postal_code":"2022","phone":"+64 9-275 0789","latitude":-37.008247,"longitude":174.78503,"uct":780,"website":"http://www.aucklandairport.co.nz/"},{"id":214,"iata":"AKN","icao":"PAKN","name":"King Salmon Airport","location":"King Salmon, Alaska, United States","street_number":"1","street":"King Salmon Airport Road","city":"King Salmon","county":"Bristol Bay","state":"Alaska","country_iso":"US","country":"United States","postal_code":"99613","phone":"+1 907-246-3325","latitude":58.676666,"longitude":-156.64917,"uct":-480,"website":"https://nfdc.faa.gov/nfdcApps/airportLookup/airportDisplay.jsp?airportId=AKN"},{"id":218,"iata":"AKR","icao":"DNAK","name":"Akure Airport","location":"Akure, Nigeria","street_number":"","street":"","city":"","county":"Akure North","state":"Ondo","country_iso":"NG","country":"Nigeria","postal_code":"","phone":"+234 816 263 3622","latitude":7.250971,"longitude":5.2996736,"uct":60,"website":""},{"id":222,"iata":"AKV","icao":"CYKO","name":"Akulivik Airport","location":"Akulivik, Quebec, Canada","street_number":"","street":"","city":"Akulivik","county":"Nord-du-Québec","state":"Quebec","country_iso":"CA","country":"Canada","postal_code":"J0M 1V0","phone":"+1 819-496-2213","latitude":60.818607,"longitude":-78.14861,"uct":-240,"website":"http://www.airinuit.com/"},{"id":225,"iata":"AKY","icao":"VYSW","name":"Sittwe Airport","location":"Sittwe, Myanmar","street_number":"","street":"","city":"Sittwe","county":"Sittwe","state":"Rakhine","country_iso":"MM","country":"Myanmar (Burma)","postal_code":"","phone":"+95 43 21 197","latitude":20.134836,"longitude":92.87314,"uct":390,"website":""},{"id":226,"iata":"ALA","icao":"UAAA","name":"Almaty International Airport","location":"Almaty, Kazakhstan","street_number":"2","street":"Mailin Street","city":"Almaty","county":"","state":"Almaty Province","country_iso":"KZ","country":"Kazakhstan","postal_code":"50039","phone":"+7 727 270 3333","latitude":43.349926,"longitude":77.02529,"uct":360,"website":"http://www.alaport.com/"},{"id":227,"iata":"ALB","icao":"KALB","name":"Albany International Airport","location":"Albany, New York, United States","street_number":"","street":"Albany Shaker Road","city":"","county":"Albany County","state":"New York","country_iso":"US","country":"United States","postal_code":"","phone":"+1 518-242-2200","latitude":42.74871,"longitude":-73.8055,"uct":-240,"website":"http://www.albanyairport.com/"},{"id":231,"iata":"ALF","icao":"ENAT","name":"Alta Airport","location":"Alta, Norway","street_number":"32","street":"Altagårdskogen","city":"","county":"Alta","state":"Finnmark","country_iso":"NO","country":"Norway","postal_code":"9515","phone":"+47 67 03 49 00","latitude":69.97791,"longitude":23.346842,"uct":120,"website":"https://avinor.no/en/airport/alta-airport/"},{"id":233,"iata":"ALH","icao":"YABA","name":"Albany Airport","location":"Albany, Western Australia, Australia","street_number":"","street":"Albany Shaker Road","city":"","county":"Albany County","state":"New York","country_iso":"US","country":"United States","postal_code":"","phone":"+1 518-242-2200","latitude":42.74871,"longitude":-73.8055,"uct":-240,"website":"http://www.albanyairport.com/"},{"id":240,"iata":"ALO","icao":"KALO","name":"Waterloo Regional Airport","location":"Waterloo, Iowa, United States","street_number":"2790","street":"Livingston Lane","city":"Waterloo","county":"Black Hawk County","state":"Iowa","country_iso":"US","country":"United States","postal_code":"50703","phone":"+1 319-291-4483","latitude":42.555225,"longitude":-92.397964,"uct":-300,"website":"http://www.flyalo.com/"},{"id":241,"iata":"ALP","icao":"OSAP","name":"Aleppo International Airport","location":"Aleppo, Syria","street_number":"","street":"طريق المطار","city":"Aleppo","county":"Mount Simeon","state":"Aleppo Governorate","country_iso":"SY","country":"Syria","postal_code":"","phone":"","latitude":36.18458,"longitude":37.22751,"uct":180,"website":""},{"id":254,"iata":"AMD","icao":"VAAH","name":"Sardar Vallabhbhai Patel International Airport","location":"Ahmedabad, Gujarat, India","street_number":"","street":"","city":"Ahmedabad","county":"Ahmedabad","state":"Gujarat","country_iso":"IN","country":"India","postal_code":"380003","phone":"+91 79 2286 9211","latitude":23.073425,"longitude":72.62657,"uct":330,"website":"https://www.aai.aero/en/airports/ahmedabad"},{"id":258,"iata":"AMH","icao":"HAAM","name":"Arba Minch Airport","location":"Arba Minch, Ethiopia","street_number":"","street":"9","city":"Arba Minch","county":"Gamo Gofa","state":"Southern Nations, Nationalities, and People's Region","country_iso":"ET","country":"Ethiopia","postal_code":"","phone":"+251 46 881 1595","latitude":6.0404453,"longitude":37.58893,"uct":180,"website":""},{"id":263,"iata":"AMM","icao":"OJAI","name":"Queen Alia International Airport","location":"Amman, Jordan","street_number":"","street":"","city":"Amman","county":"","state":"Amman Governorate","country_iso":"JO","country":"Jordan","postal_code":"","phone":"+962 6 500 2777","latitude":31.723248,"longitude":35.99507,"uct":180,"website":"http://www.qaiairport.com/"},{"id":268,"iata":"AMS","icao":"EHAM","name":"Amsterdam Airport Schiphol","location":"Amsterdam, Netherlands","street_number":"202","street":"Evert van de Beekstraat","city":"Schiphol","county":"Haarlemmermeer","state":"Noord-Holland","country_iso":"NL","country":"Netherlands","postal_code":"1118 CP","phone":"+31 20 794 0800","latitude":52.31054,"longitude":4.7682743,"uct":120,"website":"http://www.schiphol.nl/"},{"id":271,"iata":"AMV","icao":"ULDD","name":"Amderma Airport","location":"Amderma, Nenets Autonomous Okrug, Russia","street_number":"","street":"","city":"Амдерма","county":"Заполярный район","state":"Ненецкий автономный округ","country_iso":"RU","country":"Russia","postal_code":"166744","phone":"+7 818 572-37-11","latitude":69.76235,"longitude":61.574192,"uct":180,"website":"http://amderma-air.ru/"},{"id":279,"iata":"ANE","icao":"LFJR","name":"Angers – Loire Airport","location":"Angers, Pays de la Loire, France","street_number":"","street":"","city":"Marcé","county":"Maine-et-Loire","state":"Pays de la Loire","country_iso":"FR","country":"France","postal_code":"49140","phone":"+33 2 41 33 50 20","latitude":47.56036,"longitude":-0.312112,"uct":120,"website":"http://www.angersloireaeroport.fr/"},{"id":280,"iata":"ANF","icao":"SCFA","name":"Cerro Moreno International Airport","location":"Antofagasta, Chile","street_number":"","street":"","city":"Antofagasta","county":"Antofagasta","state":"Región de Antofagasta","country_iso":"CL","country":"Chile","postal_code":"","phone":"+56 55 225 4998","latitude":-23.448818,"longitude":-70.440865,"uct":-180,"website":"http://www.aeropuertoantofagasta.cl/"},{"id":282,"iata":"ANI","icao":"PANI","name":"Aniak Airport","location":"Aniak, Alaska, United States","street_number":"","street":"","city":"Aniak","county":"Bethel","state":"Alaska","country_iso":"US","country":"United States","postal_code":"99557","phone":"+1 907-266-0151","latitude":61.5808,"longitude":-159.54259,"uct":-480,"website":"https://nfdc.faa.gov/nfdcApps/services/ajv5/airportDisplay.jsp?airportId=ani"},{"id":287,"iata":"ANN","icao":"PANT","name":"Annette Island Airport","location":"Annette Island, Alaska, United States","street_number":"","street":"","city":"Metlakatla","county":"Prince of Wales-Hyder Census Area","state":"Alaska","country_iso":"US","country":"United States","postal_code":"99926","phone":"+1 907-886-4441","latitude":55.036667,"longitude":-131.57222,"uct":-480,"website":""},{"id":294,"iata":"ANV","icao":"PANV","name":"Anvik Airport","location":"Anvik, Alaska, United States","street_number":"","street":"","city":"Anvik","county":"Yukon-Koyukuk","state":"Alaska","country_iso":"US","country":"United States","postal_code":"99558","phone":"+1 907-451-2200","latitude":62.64841,"longitude":-160.19019,"uct":-480,"website":"http://www.faa.gov/airports/airport_safety/airportdata_5010/menu/contacts.cfm?Region=&District=&State=AK&County=&City=&Use=&Certification="},{"id":296,"iata":"ANX","icao":"ENAN","name":"Andøya Airport, Andenes","location":"Andenes, Norway","street_number":"","street":"","city":"Andenes","county":"Andoy","state":"Nordland","country_iso":"NO","country":"Norway","postal_code":"8480","phone":"+47 67 03 40 50","latitude":69.31068,"longitude":16.123798,"uct":120,"website":"https://avinor.no/flyplass/andoya/"},{"id":306,"iata":"AOI","icao":"LIPY","name":"Ancona Falconara Airport","location":"Ancona, Marche, Italy","street_number":"","street":"Via del Consorzio","city":"Falconara Marittima","county":"Provincia di Ancona","state":"Marche","country_iso":"IT","country":"Italy","postal_code":"60015","phone":"+39 071 28271","latitude":43.610527,"longitude":13.355831,"uct":120,"website":"http://www.marcheairport.com/"},{"id":307,"iata":"AOJ","icao":"RJSA","name":"Aomori Airport","location":"Aomori, Honshu, Japan","street_number":"","street":"","city":"Aomori-shi","county":"","state":"Aomori-ken","country_iso":"JP","country":"Japan","postal_code":"030-0155","phone":"+81 17-739-2000","latitude":40.73828,"longitude":140.6891,"uct":540,"website":"http://www.aomori-airport.co.jp/"},{"id":308,"iata":"AOK","icao":"LGKP","name":"Karpathos Island National Airport","location":"Karpathos, Greece","street_number":"","street":"","city":"Karpathos","county":"","state":"","country_iso":"GR","country":"Greece","postal_code":"857 00","phone":"","latitude":35.420433,"longitude":27.146923,"uct":180,"website":"http://www.greek-airports.gr/karpat.htm"},{"id":314,"iata":"AOR","icao":"WMKA","name":"Sultan Abdul Halim Airport","location":"Alor Setar, Kedah, Malaysia","street_number":"","street":"","city":"Alor Setar","county":"","state":"Kedah","country_iso":"MY","country":"Malaysia","postal_code":"6200","phone":"+60 4-714 6876","latitude":6.1919985,"longitude":100.39505,"uct":480,"website":"http://www.malaysiaairports.com.my/?m=business&c=business_about&id=8"},{"id":326,"iata":"APL","icao":"FQNP","name":"Nampula Airport","location":"Nampula, Mozambique","street_number":"","street":"Avenida do trabalho A, 418","city":"Nampula","county":"Cidade de Nampula","state":"Nampula","country_iso":"MZ","country":"Mozambique","postal_code":"","phone":"","latitude":-15.1075325,"longitude":39.28382,"uct":120,"website":"http://www.aeroportos.co.mz/"},{"id":327,"iata":"APN","icao":"KAPN","name":"Alpena County Regional Airport","location":"Alpena, Michigan, United States","street_number":"1617","street":"Airport Road","city":"Alpena","county":"Alpena County","state":"Michigan","country_iso":"US","country":"United States","postal_code":"49707","phone":"+1 989-354-2907","latitude":45.072197,"longitude":-83.56359,"uct":-240,"website":"http://alpenaairport.com/"},{"id":328,"iata":"APO","icao":"SKLC","name":"Antonio Roldán Betancourt Airport","location":"Apartadó, Colombia","street_number":"","street":"","city":"","county":"Carepa","state":"Antioquia","country_iso":"CO","country":"Colombia","postal_code":"57858","phone":"+57 4 8296433","latitude":7.816072,"longitude":-76.7185,"uct":-300,"website":"http://www.airplan.aero/"},{"id":336,"iata":"APW","icao":"NSFA","name":"Faleolo International Airport","location":"Apia, Upolu Island, Samoa","street_number":"","street":"Main West Coast Road","city":"Faleolo","county":"","state":"A'ana","country_iso":"WS","country":"Samoa","postal_code":"","phone":"+685 23201","latitude":-13.83045,"longitude":-172.0081,"uct":840,"website":"http://apia.airport-authority.com/"},{"id":340,"iata":"AQA","icao":"SBAQ","name":"Araraquara Airport","location":"Araraquara, São Paulo, Brazil","street_number":"","street":"","city":"","county":"Gavião Peixoto","state":"State of São Paulo","country_iso":"BR","country":"Brazil","postal_code":"14813-000","phone":"+55 16 3338-9000","latitude":-21.760841,"longitude":-48.398132,"uct":-180,"website":"http://www.embraer.com.br/"},{"id":342,"iata":"AQG","icao":"ZSAQ","name":"Anqing Tianzhushan Airport","location":"Anqing, Anhui, China","street_number":"","street":"","city":"Anqing","county":"","state":"","country_iso":"CN","country":"China","postal_code":"246000","phone":"+86 556 586 1114","latitude":30.5831,"longitude":117.05164,"uct":480,"website":""},{"id":346,"iata":"AQP","icao":"SPQU","name":"Rodríguez Ballón International Airport","location":"Arequipa, Peru","street_number":"","street":"Aeropuerto","city":"Cerro Colorado","county":"Arequipa","state":"Arequipa","country_iso":"PE","country":"Peru","postal_code":"","phone":"+51 54 344834","latitude":-16.344688,"longitude":-71.56765,"uct":-300,"website":"http://www.aap.com.pe/aeropuerto-internacional-rodriguez-ballon"},{"id":351,"iata":"ARC","icao":"PARC","name":"Arctic Village Airport","location":"Arctic Village, Alaska, United States","street_number":"","street":"","city":"Arctic Village","county":"Yukon-Koyukuk","state":"Alaska","country_iso":"US","country":"United States","postal_code":"99722","phone":"+1 907-849-8165","latitude":68.11444,"longitude":-145.57916,"uct":-480,"website":"https://nfdc.faa.gov/nfdcApps/airportLookup/airportDisplay.jsp?category=nasr&airportId=ARC"},{"id":356,"iata":"ARH","icao":"ULAA","name":"Talagi Airport","location":"Arkhangelsk, Arkhangelsk Oblast, Russia","street_number":"10","street":"Аэропорт","city":"Arkhangelsk","county":"","state":"Arkhangelskaya oblast'","country_iso":"RU","country":"Russia","postal_code":"163053","phone":"+7 818 263-16-00","latitude":64.596115,"longitude":40.714546,"uct":180,"website":"http://arhaero.ru/"},{"id":357,"iata":"ARI","icao":"SCAR","name":"Chacalluta International Airport","location":"Arica, Chile","street_number":"3150","street":"Ruta 12","city":"","county":"Arica","state":"Región de Arica y Parinacota","country_iso":"CL","country":"Chile","postal_code":"","phone":"+56 58 221 2773","latitude":-18.349466,"longitude":-70.33463,"uct":-180,"website":"http://www.chacalluta.cl/"},{"id":361,"iata":"ARM","icao":"YARM","name":"Armidale Airport","location":"Armidale, New South Wales, Australia","street_number":"9","street":"Peter Monley Drive","city":"Armidale","county":"Armidale Dumaresq Council","state":"New South Wales","country_iso":"AU","country":"Australia","postal_code":"2350","phone":"+61 1300 136 833","latitude":-30.53213,"longitude":151.61496,"uct":660,"website":"http://www.armidaleairport.com/"},{"id":362,"iata":"ARN","icao":"ESSA","name":"Stockholm Arlanda Airport","location":"Stockholm, Sweden","street_number":"","street":"","city":"","county":"","state":"Stockholms län","country_iso":"SE","country":"Sweden","postal_code":"190 45","phone":"+46 10 109 10 00","latitude":59.64976,"longitude":17.92378,"uct":120,"website":"http://www.swedavia.se/arlanda/"},{"id":369,"iata":"ARU","icao":"SBAU","name":"Araçatuba Airport","location":"Araçatuba, São Paulo, Brazil","street_number":"","street":"Via de Acesso Olegário Ferraz","city":"","county":"Araçatuba","state":"São Paulo","country_iso":"BR","country":"Brazil","postal_code":"16052-800","phone":"+55 18 3621-3001","latitude":-21.13759,"longitude":-50.425983,"uct":-180,"website":"http://www.daesp.sp.gov.br/aeroporto-detalhe/?id=841"},{"id":371,"iata":"ARW","icao":"LRAR","name":"Arad International Airport","location":"Arad, Romania","street_number":"","street":"Aleea Aeroport","city":"Arad","county":"Municipiul Arad","state":"Județul Arad","country_iso":"RO","country":"Romania","postal_code":"","phone":"+40 257 339 010","latitude":46.17237,"longitude":21.278345,"uct":180,"website":"http://aeroportularad.ro/"},{"id":374,"iata":"ASA","icao":"HHSB","name":"Assab International Airport","location":"Assab, Eritrea","street_number":"","street":"","city":"","county":"Southern Dankalia","state":"Southern Red Sea","country_iso":"ER","country":"Eritrea","postal_code":"","phone":"","latitude":13.071139,"longitude":42.645916,"uct":180,"website":""},{"id":375,"iata":"ASB","icao":"UTAA","name":"Ashgabat International Airport","location":"Ashgabat, Turkmenistan","street_number":"","street":"","city":"Ashgabat","county":"","state":"Ashgabat","country_iso":"TM","country":"Turkmenistan","postal_code":"","phone":"","latitude":37.984512,"longitude":58.366512,"uct":300,"website":"http://www.ashgabatairport.gov.tm/"},{"id":379,"iata":"ASF","icao":"URWA","name":"Narimanovo Airport","location":"Astrakhan, Astrakhan Oblast, Russia","street_number":"1, стр. 2","street":"Аэропортовский пр-д","city":"Astrakhan","county":"Gorod Astrakhan'","state":"Astrakhanskaya oblast'","country_iso":"RU","country":"Russia","postal_code":"414018","phone":"+7 851 239-33-17","latitude":46.287037,"longitude":47.99988,"uct":240,"website":"http://аэропортастрахань.рф/"},{"id":382,"iata":"ASI","icao":"FHAW","name":"RAF Ascension Island (Wideawake Field)","location":"Ascension Island, British Overseas Territoryof Saint Helena, Ascension and Tristan da Cunha","street_number":"","street":"","city":"","county":"","state":"Ascension","country_iso":"SH","country":"Saint Helena, Ascension and Tristan da Cunha","postal_code":"ASCN 1ZZ","phone":"","latitude":-7.968347,"longitude":-14.402837,"uct":0,"website":""},{"id":386,"iata":"ASM","icao":"HHAS","name":"Asmara International Airport","location":"Asmara, Eritrea","street_number":"","street":"Hday Street","city":"Asmara","county":"Gala Nethi","state":"Central","country_iso":"ER","country":"Eritrea","postal_code":"","phone":"+291 1 181 241","latitude":15.285,"longitude":38.90167,"uct":180,"website":""},{"id":388,"iata":"ASO","icao":"HASO","name":"Asosa Airport","location":"Asosa, Ethiopia","street_number":"","street":"5","city":"","county":"Asosa","state":"Benishangul-Gumuz","country_iso":"ET","country":"Ethiopia","postal_code":"","phone":"","latitude":10.023081,"longitude":34.57845,"uct":180,"website":""},{"id":389,"iata":"ASP","icao":"YBAS","name":"Alice Springs Airport","location":"Alice Springs, Northern Territory, Australia","street_number":"","street":"Santa Teresa Road","city":"Alice Springs","county":"Alice Springs Municipality","state":"Northern Territory","country_iso":"AU","country":"Australia","postal_code":"871","phone":"+61 8 8951 1211","latitude":-23.804903,"longitude":133.9023,"uct":570,"website":"http://www.alicespringsairport.com.au/"},{"id":391,"iata":"ASR","icao":"LTAU","name":"Erkilet International Airport","location":"Kayseri, Turkey","street_number":"","street":"Mustafa Kemal Paşa Bulvarı","city":"","county":"Kocasinan","state":"Kayseri","country_iso":"TR","country":"Turkey","postal_code":"38090","phone":"+90 352 337 52 44","latitude":38.77241,"longitude":35.493206,"uct":180,"website":"http://www.kayseri.dhmi.gov.tr/havaalanlari/default.aspx?hv=27"},{"id":393,"iata":"ASU","icao":"SGAS","name":"Silvio Pettirossi International Airport","location":"Asunción, Paraguay","street_number":"","street":"Autopista Silvio Pettisossi","city":"Luque","county":"","state":"Departamento Central","country_iso":"PY","country":"Paraguay","postal_code":"","phone":"+595 21 688 2000","latitude":-25.241512,"longitude":-57.514183,"uct":-180,"website":"http://www.dinac.gov.py/v2/index.php?option=com_k2&view=itemlist&task=category&id=49:aeropuerto-internacional-silvio-pettirossi&Itemid=205"},{"id":395,"iata":"ASW","icao":"HESN","name":"Aswan International Airport","location":"Aswan, Egypt","street_number":"","street":"","city":"","county":"","state":"","country_iso":"EG","country":"Egypt","postal_code":"","phone":"+20 97 3482440","latitude":23.966442,"longitude":32.824474,"uct":120,"website":"http://www.eac-airports.com/index.php/en/international-airports/aswan-airport"},{"id":406,"iata":"ATH","icao":"LGAV","name":"Athens International Airport (Eleftherios Venizelos Airport)","location":"Athens, Greece","street_number":"","street":"Attiki Odos","city":"","county":"","state":"","country_iso":"GR","country":"Greece","postal_code":"190 04","phone":"+30 21 0353 0000","latitude":37.935646,"longitude":23.948416,"uct":180,"website":"http://www.aia.gr/traveler/"},{"id":410,"iata":"ATL","icao":"KATL","name":"Hartsfield–Jackson Atlanta International Airport","location":"Atlanta, Georgia, United States","street_number":"6000","street":"North Terminal Parkway","city":"Atlanta","county":"","state":"Georgia","country_iso":"US","country":"United States","postal_code":"30320","phone":"+1 800-897-1910","latitude":33.640728,"longitude":-84.427704,"uct":-240,"website":"http://www.atl.com/"},{"id":411,"iata":"ATM","icao":"SBHT","name":"Altamira Airport","location":"Altamira, Pará, Brazil","street_number":"S/N","street":"Avenida Tancredo Neves","city":"","county":"Altamira","state":"Pará","country_iso":"BR","country":"Brazil","postal_code":"68372-590","phone":"+55 93 3515-1976","latitude":-3.2535655,"longitude":-52.24909,"uct":-180,"website":"http://www4.infraero.gov.br/aeroportos/aeroporto-de-altamira-para"},{"id":415,"iata":"ATQ","icao":"VIAR","name":"Sri Guru Ram Dass Jee International Airport","location":"Amritsar, Punjab, India","street_number":"","street":"","city":"Amritsar","county":"Amritsar","state":"Punjab","country_iso":"IN","country":"India","postal_code":"143101","phone":"+91 183 221 4118","latitude":31.70724,"longitude":74.7989,"uct":330,"website":"http://www.amritsarairport.com/"},{"id":423,"iata":"ATY","icao":"KATY","name":"Watertown Regional Airport","location":"Watertown, South Dakota, United States","street_number":"2416","street":"Boeing Avenue","city":"Watertown","county":"Codington County","state":"South Dakota","country_iso":"US","country":"United States","postal_code":"57201","phone":"+1 605-882-6209","latitude":44.92134,"longitude":-97.16116,"uct":-300,"website":"https://www.watertownsd.us/853/Watertown-Regional-Airport"},{"id":424,"iata":"ATZ","icao":"HEAT","name":"Assiut Airport","location":"Assiut, Egypt","street_number":"","street":"Kharga - Asyuit Road","city":"","county":"قسم الواحات الخارجة","state":"الوادي الجديد","country_iso":"EG","country":"Egypt","postal_code":"","phone":"+20 88 2301644","latitude":27.050007,"longitude":31.015408,"uct":120,"website":"http://www.egyptair.com/"},{"id":425,"iata":"AUA","icao":"TNCA","name":"Queen Beatrix International Airport","location":"Aruba, Kingdom of the Netherlands","street_number":"","street":"","city":"Oranjestad","county":"","state":"","country_iso":"AW","country":"Aruba","postal_code":"","phone":"+297 524 2424","latitude":12.501594,"longitude":-70.01199,"uct":-240,"website":"http://www.airportaruba.com/"},{"id":426,"iata":"AUC","icao":"SKUC","name":"Santiago Pérez Quiroz Airport","location":"Arauca, Colombia","street_number":"","street":"","city":"","county":"Arauca","state":"Arauca","country_iso":"CO","country":"Colombia","postal_code":"810009","phone":"+57 313 3565188","latitude":7.0681634,"longitude":-70.73531,"uct":-300,"website":"http://www.aerocivil.gov.co/aeropuertos/Pages/santiago-perez-quiroz.aspx"},{"id":430,"iata":"AUG","icao":"KAUG","name":"Augusta State Airport","location":"Augusta, Maine, United States","street_number":"75","street":"Airport Road","city":"Augusta","county":"Kennebec County","state":"Maine","country_iso":"US","country":"United States","postal_code":"4330","phone":"+1 207-626-2306","latitude":44.31882,"longitude":-69.79554,"uct":-240,"website":"http://www.augustamaine.gov/departments/augusta_state_airport/"},{"id":431,"iata":"AUH","icao":"OMAA","name":"Abu Dhabi International Airport","location":"Abu Dhabi, United Arab Emirates","street_number":"","street":"","city":"Abu Dhabi","county":"","state":"Abu Dhabi","country_iso":"AE","country":"United Arab Emirates","postal_code":"","phone":"+971 2 505 5555","latitude":24.441938,"longitude":54.650074,"uct":240,"website":"http://www.abudhabiairport.ae/"},{"id":440,"iata":"AUQ","icao":"NTMN","name":"Atuona Airport","location":"Atuona, Marquesas Islands, French Polynesia","street_number":"","street":"","city":"","county":"Southern Group","state":"Marquesas Islands","country_iso":"PF","country":"French Polynesia","postal_code":"","phone":"","latitude":-9.769181,"longitude":-139.01135,"uct":-570,"website":""},{"id":441,"iata":"AUR","icao":"LFLW","name":"Aurillac – Tronquières Airport","location":"Aurillac, Auvergne, France","street_number":"","street":"Avenue de Tronquières","city":"Aurillac","county":"Cantal","state":"Auvergne-Rhône-Alpes","country_iso":"FR","country":"France","postal_code":"15000","phone":"+33 4 71 64 50 00","latitude":44.897808,"longitude":2.420643,"uct":120,"website":"https://www.caba.fr/aeroport/"},{"id":442,"iata":"AUS","icao":"KAUS","name":"Austin–Bergstrom International Airport","location":"Austin, Texas, United States","street_number":"3600","street":"Presidential Boulevard","city":"Austin","county":"Travis County","state":"Texas","country_iso":"US","country":"United States","postal_code":"78719","phone":"+1 512-530-2242","latitude":30.197472,"longitude":-97.66635,"uct":-300,"website":"http://www.austintexas.gov/airport/"},{"id":447,"iata":"AUX","icao":"SWGN","name":"Araguaína Airport","location":"Araguaína, Tocantins, Brazil","street_number":"280","street":"Avenida Dionísio Farias","city":"","county":"Araguaína","state":"Tocantins","country_iso":"BR","country":"Brazil","postal_code":"65907-230","phone":"+55 63 99291-8995","latitude":-7.2283916,"longitude":-48.240532,"uct":-180,"website":""},{"id":450,"iata":"AVA","icao":"ZUAS","name":"Anshun Huangguoshu Airport","location":"Anshun, Guizhou, China","street_number":"","street":"","city":"Anshun","county":"","state":"Guizhou","country_iso":"CN","country":"China","postal_code":"561000","phone":"","latitude":26.254,"longitude":105.876465,"uct":480,"website":""},{"id":454,"iata":"AVK","icao":"ZMAH","name":"Arvaikheer Airport","location":"Arvaikheer, Mongolia","street_number":"","street":"","city":"Arvaikheer","county":"Taragt","state":"Övörkhangai","country_iso":"MN","country":"Mongolia","postal_code":"","phone":"","latitude":46.250088,"longitude":102.80302,"uct":480,"website":""},{"id":455,"iata":"AVL","icao":"KAVL","name":"Asheville Regional Airport","location":"Asheville, North Carolina, United States","street_number":"61","street":"Terminal Drive","city":"Fletcher","county":"Buncombe County","state":"North Carolina","country_iso":"US","country":"United States","postal_code":"28732","phone":"+1 828-684-2226","latitude":35.434895,"longitude":-82.53786,"uct":-240,"website":"http://flyavl.com/"},{"id":472,"iata":"AWZ","icao":"OIAW","name":"Ahvaz International Airport","location":"Ahvaz, Iran","street_number":"","street":"","city":"Ahvaz","county":"","state":"Khuzestan Province","country_iso":"IR","country":"Iran","postal_code":"","phone":"+98 61 3443 4601","latitude":31.342964,"longitude":48.7469,"uct":210,"website":"https://ahwaz.airport.ir/"},{"id":473,"iata":"AXA","icao":"TQPF","name":"Clayton J. Lloyd International Airport","location":"The Valley, British Overseas Territory of Anguilla","street_number":"","street":"","city":"The Valley","county":"","state":"","country_iso":"AI","country":"Anguilla","postal_code":"2640","phone":"+1 264-497-3510","latitude":18.20659,"longitude":-63.05263,"uct":-240,"website":"http://www.gov.ai/airport.php"},{"id":476,"iata":"AXD","icao":"LGAL","name":"Alexandroupoli Airport (Dimokritos Airport)","location":"Alexandroupoli, Greece","street_number":"","street":"","city":"","county":"","state":"","country_iso":"GR","country":"Greece","postal_code":"681 00","phone":"","latitude":40.85657,"longitude":25.944748,"uct":180,"website":"http://www.axdairport.com/"},{"id":478,"iata":"AXF","icao":"","name":"Alxa Left Banner Bayanhot Airport","location":"Alxa Left Banner, Inner Mongolia, China","street_number":"","street":"","city":"","county":"","state":"","country_iso":"","country":"","postal_code":"","phone":"","latitude":0,"longitude":0,"uct":0,"website":""},{"id":483,"iata":"AXM","icao":"SKAR","name":"El Edén International Airport","location":"Armenia, Colombia","street_number":"22-08","street":"Calle 23","city":"Armenia","county":"Armenia","state":"Quindío","country_iso":"CO","country":"Colombia","postal_code":"630002","phone":"+57 6 7479400","latitude":4.4528823,"longitude":-75.7663,"uct":-300,"website":""},{"id":485,"iata":"AXP","icao":"MYAP","name":"Spring Point Airport","location":"Spring Point, Acklins Island, Bahamas","street_number":"","street":"","city":"Spring Point Settlement","county":"","state":"Acklins","country_iso":"BS","country":"The Bahamas","postal_code":"","phone":"+1 242-344-3666","latitude":22.442047,"longitude":-73.97066,"uct":-240,"website":""},{"id":486,"iata":"AXR","icao":"NTGU","name":"Arutua Airport","location":"Arutua, Tuamotus, French Polynesia","street_number":"","street":"","city":"","county":"Tuamotus Islands","state":"The Tuamotu and Gambier Islands","country_iso":"PF","country":"French Polynesia","postal_code":"","phone":"","latitude":-15.666667,"longitude":-146.88611,"uct":-600,"website":""},{"id":489,"iata":"AXU","icao":"HAAX","name":"Axum Airport","location":"Axum, Ethiopia","street_number":"","street":"","city":"Aksum","county":"Central Tigray","state":"Tigray","country_iso":"ET","country":"Ethiopia","postal_code":"","phone":"+251 34 442 0237","latitude":14.144398,"longitude":38.774773,"uct":180,"website":""},{"id":502,"iata":"AYP","icao":"SPHO","name":"Coronel FAP Alfredo Mendívil Duarte Airport","location":"Ayacucho, Peru","street_number":"961","street":"Amancaes","city":"Ayacucho","county":"Huamanga","state":"Ayacucho","country_iso":"PE","country":"Peru","postal_code":"","phone":"+51 66 312418","latitude":-13.15359,"longitude":-74.20623,"uct":-300,"website":"http://www.corpac.gob.pe/Main.asp?T=4120"},{"id":506,"iata":"AYT","icao":"LTAI","name":"Antalya Airport","location":"Antalya, Turkey","street_number":"","street":"Antalya Havaalanı Dış Hatlar Terminali 1","city":"","county":"Muratpaşa","state":"Antalya","country_iso":"TR","country":"Turkey","postal_code":"7230","phone":"+90 242 444 74 23","latitude":36.90433,"longitude":30.801876,"uct":180,"website":"http://www.icfairports.com/"},{"id":510,"iata":"AZA","icao":"KIWA","name":"Phoenix–Mesa Gateway Airport (FAA: IWA)","location":"Phoenix, Arizona, United States","street_number":"6033","street":"South Sossaman Road","city":"Mesa","county":"Maricopa County","state":"Arizona","country_iso":"US","country":"United States","postal_code":"85212","phone":"+1 480-988-7600","latitude":33.306534,"longitude":-111.66255,"uct":-420,"website":"http://www.gatewayairport.com/"},{"id":512,"iata":"AZD","icao":"OIYY","name":"Shahid Sadooghi Airport","location":"Yazd, Iran","street_number":"","street":"","city":"Yazd","county":"","state":"Yazd Province","country_iso":"IR","country":"Iran","postal_code":"","phone":"+98 35 3721 4444","latitude":31.901522,"longitude":54.285587,"uct":210,"website":"http://yazd.airport.ir/"},{"id":516,"iata":"AZN","icao":"UTKA","name":"Andizhan Airport","location":"Andizhan, Uzbekistan","street_number":"","street":"","city":"Andijan","county":"","state":"Andijan region","country_iso":"UZ","country":"Uzbekistan","postal_code":"","phone":"+998 90 482 45 45","latitude":40.739174,"longitude":72.31322,"uct":300,"website":""},{"id":517,"iata":"AZO","icao":"KAZO","name":"Kalamazoo/Battle Creek International Airport","location":"Kalamazoo, Michigan, United States","street_number":"5235","street":"Portage Road","city":"Portage","county":"Kalamazoo County","state":"Michigan","country_iso":"US","country":"United States","postal_code":"49002","phone":"+1 269-388-3668","latitude":42.23555,"longitude":-85.55159,"uct":-240,"website":"http://azoairport.com/"},{"id":519,"iata":"AZR","icao":"DAUA","name":"Touat-Cheikh Sidi Mohamed Belkebir Airport","location":"Adrar, Algeria","street_number":"","street":"","city":"Adrar","county":"","state":"Adrar Province","country_iso":"DZ","country":"Algeria","postal_code":"","phone":"+213 49 96 93 19","latitude":27.841246,"longitude":-0.1880881,"uct":60,"website":"http://www.egsaoran.com/"},{"id":530,"iata":"BAH","icao":"OBBI","name":"Bahrain International Airport","location":"Manama, Bahrain","street_number":"","street":"Road 2404","city":"Muharraq","county":"","state":"Muharraq Governorate","country_iso":"BH","country":"Bahrain","postal_code":"","phone":"+973 8000 7777","latitude":26.269712,"longitude":50.625988,"uct":180,"website":"http://www.bahrainairport.com/"},{"id":538,"iata":"BAQ","icao":"SKBQ","name":"Ernesto Cortissoz International Airport","location":"Barranquilla, Colombia","street_number":"","street":"","city":"","county":"Soledad","state":"Atlántico","country_iso":"CO","country":"Colombia","postal_code":"","phone":"+57 5 3160900","latitude":10.886601,"longitude":-74.77643,"uct":-300,"website":"http://aeropuertobaq.com/"},{"id":539,"iata":"BAR","icao":"","name":"Qionghai Bo'ao Airport","location":"Qionghai, Hainan, China","street_number":"","street":"","city":"Haikou","county":"","state":"Hainan","country_iso":"CN","country":"China","postal_code":"","phone":"+86 898 6576 0114","latitude":19.93854,"longitude":110.462135,"uct":480,"website":"http://www.mlairport.com/"},{"id":542,"iata":"BAV","icao":"ZBOW","name":"Baotou Airport","location":"Baotou, Inner Mongolia, China","street_number":"","street":"","city":"Baotou","county":"","state":"Inner Mongolia","country_iso":"CN","country":"China","postal_code":"","phone":"","latitude":40.566456,"longitude":110.0022,"uct":480,"website":""},{"id":544,"iata":"BAX","icao":"UNBB","name":"Barnaul Airport","location":"Barnaul, Altai Krai, Russia","street_number":"226","street":"Pavlovskiy Trakt","city":"Barnaul","county":"Barnaul","state":"Altayskiy kray","country_iso":"RU","country":"Russia","postal_code":"656057","phone":"+7 385 254-30-09","latitude":53.361263,"longitude":83.547386,"uct":420,"website":"http://www.airaltay.ru/"},{"id":545,"iata":"BAY","icao":"LRBM","name":"Baia Mare Airport","location":"Baia Mare, Romania","street_number":"","street":"","city":"Tăuții-Măgherăuș","county":"Orașul Tăuții - Măgherăuș","state":"Județul Maramureș","country_iso":"RO","country":"Romania","postal_code":"437345","phone":"+40 262 293 444","latitude":47.66112,"longitude":23.467453,"uct":180,"website":"http://www.aimm.eu/"},{"id":547,"iata":"BBA","icao":"SCBA","name":"Balmaceda Airport","location":"Balmaceda, Chile","street_number":"","street":"","city":"","county":"Aysén Province","state":"Aysén Region","country_iso":"CL","country":"Chile","postal_code":"","phone":"+56 2 2222 8400","latitude":-45.91478,"longitude":-71.691826,"uct":-180,"website":""},{"id":553,"iata":"BBI","icao":"VEBS","name":"Biju Patnaik International Airport","location":"Bhubaneswar, Odisha, India","street_number":"","street":"Airport Road","city":"Bhubaneswar","county":"Khordha","state":"Odisha","country_iso":"IN","country":"India","postal_code":"751020","phone":"+91 674 259 6305","latitude":20.250677,"longitude":85.81453,"uct":330,"website":"https://www.aai.aero/en/node/2902"},{"id":557,"iata":"BBM","icao":"VDBG","name":"Battambang Airport","location":"Battambang, Cambodia","street_number":"","street":"5","city":"ក្រុងបាត់ដំបង","county":"បាត់ដំបង","state":"ខេត្ត​បាត់ដំបង","country_iso":"KH","country":"Cambodia","postal_code":"","phone":"","latitude":13.091987,"longitude":103.22276,"uct":420,"website":""},{"id":559,"iata":"BBO","icao":"HCMI","name":"Berbera Airport","location":"Berbera, Somalia","street_number":"","street":"","city":"","county":"Berbera","state":"Woqooyi Galbeed","country_iso":"SO","country":"Somalia","postal_code":"","phone":"+252 63 4486525","latitude":10.391332,"longitude":44.94358,"uct":180,"website":""},{"id":561,"iata":"BBQ","icao":"TAPH","name":"Barbuda Codrington Airport","location":"Barbuda, Antigua and Barbuda","street_number":"","street":"","city":"Codrington","county":"","state":"Barbuda","country_iso":"AG","country":"Antigua and Barbuda","postal_code":"","phone":"","latitude":17.635834,"longitude":-61.826946,"uct":-240,"website":""},{"id":571,"iata":"BCA","icao":"MUBA","name":"Gustavo Rizo Airport","location":"Baracoa, Cuba","street_number":"","street":"","city":"Baracoa","county":"Baracoa","state":"Guantanamo","country_iso":"CU","country":"Cuba","postal_code":"","phone":"+53 21 641665","latitude":20.3584,"longitude":-74.50417,"uct":-240,"website":""},{"id":574,"iata":"BCD","icao":"RPVB","name":"Bacolod–Silay International Airport","location":"Bacolod, Philippines","street_number":"","street":"Airport Road","city":"Silay City","county":"Negros Occidental","state":"Western Visayas","country_iso":"PH","country":"Philippines","postal_code":"6116","phone":"+63 34 435 2448","latitude":10.776625,"longitude":123.01491,"uct":480,"website":""},{"id":579,"iata":"BCI","icao":"YBAR","name":"Barcaldine Airport","location":"Barcaldine, Queensland, Australia","street_number":"35","street":"Myall Street","city":"Barcaldine","county":"Barcaldine Regional","state":"Queensland","country_iso":"AU","country":"Australia","postal_code":"4725","phone":"","latitude":-23.56168,"longitude":145.30205,"uct":600,"website":""},{"id":582,"iata":"BCM","icao":"LRBC","name":"Bacău International Airport","location":"Bacău, Romania","street_number":"1","street":"Strada Aeroportului","city":"Bacău","county":"","state":"Județul Bacău","country_iso":"RO","country":"Romania","postal_code":"600324","phone":"+40 234 575 400","latitude":46.53105,"longitude":26.910706,"uct":180,"website":"http://www.bacauairport.ro/"},{"id":583,"iata":"BCN","icao":"LEBL","name":"Barcelona–El Prat Airport","location":"Barcelona, Catalonia, Spain","street_number":"","street":"","city":"El Prat de Llobregat","county":"Barcelona","state":"Catalonia","country_iso":"ES","country":"Spain","postal_code":"8820","phone":"+34 902 40 47 04","latitude":41.297443,"longitude":2.0832942,"uct":120,"website":"http://www.aena-aeropuertos.es/csee/Satellite/Aeropuerto-Barcelona"},{"id":590,"iata":"BCU","icao":"","name":"Bauchi State Airport","location":"Bauchi, Nigeria","street_number":"","street":"A345","city":"","county":"Akko","state":"Gombe","country_iso":"NG","country":"Nigeria","postal_code":"","phone":"","latitude":10.306852,"longitude":10.90756,"uct":60,"website":""},{"id":592,"iata":"BCW","icao":"","name":"Benguerra Island Airport","location":"Benguerra Island, Mozambique","street_number":"","street":"","city":"Benguera Island","county":"","state":"","country_iso":"MZ","country":"Mozambique","postal_code":"","phone":"","latitude":-21.884722,"longitude":35.425,"uct":120,"website":""},{"id":596,"iata":"BDA","icao":"TXKF","name":"L.F. Wade International Airport","location":"Hamilton, British Overseas Territory of Bermuda","street_number":"","street":"","city":"","county":"","state":"St. George's Parish","country_iso":"BM","country":"Bermuda","postal_code":"","phone":"+1 441-293-2470","latitude":32.35983,"longitude":-64.702034,"uct":-180,"website":"http://www.bermudaairport.com/pages/contacts.aspx"},{"id":597,"iata":"BDB","icao":"YBUD","name":"Bundaberg Airport","location":"Bundaberg, Queensland, Australia","street_number":"","street":"Airport Drive","city":"Bundaberg","county":"Bundaberg Regional","state":"Queensland","country_iso":"AU","country":"Australia","postal_code":"4670","phone":"+61 1300 883 699","latitude":-24.900074,"longitude":152.3221,"uct":600,"website":"http://www.bundaberg.qld.gov.au/airport"},{"id":612,"iata":"BDQ","icao":"VABO","name":"Vadodara Airport (Civil Airport Harni)","location":"Vadodara, Gujarat, India","street_number":"","street":"","city":"Vadodara","county":"Vadodara","state":"Gujarat","country_iso":"IN","country":"India","postal_code":"390022","phone":"+91 265 248 5356","latitude":22.332462,"longitude":73.21706,"uct":330,"website":"http://aai.aero/"},{"id":613,"iata":"BDR","icao":"KBDR","name":"Igor I. Sikorsky Memorial Airport","location":"Bridgeport, Connecticut, United States","street_number":"1000","street":"Great Meadow Road","city":"Stratford","county":"Fairfield County","state":"Connecticut","country_iso":"US","country":"United States","postal_code":"6497","phone":"+1 203-576-8161","latitude":41.16421,"longitude":-73.124664,"uct":-240,"website":"http://bridgeportct.gov/airport"},{"id":614,"iata":"BDS","icao":"LIBR","name":"Brindisi – Salento Airport","location":"Brindisi, Apulia, Italy","street_number":"","street":"Contrada Baroncino","city":"Brindisi","county":"Provincia di Brindisi","state":"Puglia","country_iso":"IT","country":"Italy","postal_code":"72100","phone":"+39 0831 411 7406","latitude":40.65676,"longitude":17.945349,"uct":120,"website":"http://www.aeroportidipuglia.it/brindisi14"},{"id":616,"iata":"BDU","icao":"ENDU","name":"Bardufoss Airport","location":"Bardufoss, Norway","street_number":"","street":"","city":"Bardufoss","county":"Målselv Municipality","state":"Troms","country_iso":"NO","country":"Norway","postal_code":"9325","phone":"+47 67 03 44 00","latitude":69.0596,"longitude":18.538963,"uct":120,"website":"https://avinor.no/flyplass/bardufoss/"},{"id":623,"iata":"BEB","icao":"EGPL","name":"Benbecula Airport","location":"Benbecula, Scotland, United Kingdom","street_number":"","street":"","city":"Balivanich","county":"","state":"Scotland","country_iso":"GB","country":"United Kingdom","postal_code":"HS7 5LW","phone":"+44 1870 602051","latitude":57.475,"longitude":-7.372312,"uct":60,"website":"http://www.hial.co.uk/benbecula-airport"},{"id":628,"iata":"BEG","icao":"LYBE","name":"Belgrade Nikola Tesla Airport","location":"Belgrade, Serbia","street_number":"","street":"","city":"Beograd","county":"Grad Beograd","state":"","country_iso":"RS","country":"Serbia","postal_code":"11180","phone":"+381 11 2094444","latitude":44.8205,"longitude":20.29169,"uct":120,"website":"http://www.beg.aero/"},{"id":631,"iata":"BEJ","icao":"WALK","name":"Kalimarau Airport","location":"Tanjung Redeb, Indonesia","street_number":"","street":"","city":"","county":"Berau Regency","state":"East Kalimantan","country_iso":"ID","country":"Indonesia","postal_code":"77315","phone":"+62 554 2703277","latitude":2.1478841,"longitude":117.43391,"uct":480,"website":""},{"id":633,"iata":"BEL","icao":"SBBE","name":"Val de Cans International Airport","location":"Belém, Pará, Brazil","street_number":"s/n","street":"Avenida Júlio César","city":"","county":"Belém","state":"Pará","country_iso":"BR","country":"Brazil","postal_code":"66115-970","phone":"+55 91 3210-6000","latitude":-1.3820615,"longitude":-48.477524,"uct":-180,"website":"http://www4.infraero.gov.br/aeroportos/aeroporto-internacional-de-belem-val-de-cans-julio-cezar-ribeiro/"},{"id":635,"iata":"BEN","icao":"HLLB","name":"Benina International Airport","location":"Benghazi, Libya","street_number":"","street":"","city":"","county":"","state":"","country_iso":"","country":"","postal_code":"","phone":"","latitude":0,"longitude":0,"uct":0,"website":""},{"id":639,"iata":"BER","icao":"EDDB","name":"Berlin Brandenburg Airport (in construction)","location":"Berlin, Germany","street_number":"1","street":"Melli-Beese-Ring","city":"Schönefeld","county":"","state":"Brandenburg","country_iso":"DE","country":"Germany","postal_code":"12529","phone":"+49 30 60911150","latitude":52.362514,"longitude":13.502978,"uct":120,"website":"http://www.berlin-airport.de/de/ber/index.php"},{"id":641,"iata":"BET","icao":"PABE","name":"Bethel Airport","location":"Bethel, Alaska, United States","street_number":"","street":"","city":"Bethel","county":"Bethel","state":"Alaska","country_iso":"US","country":"United States","postal_code":"99559","phone":"","latitude":60.77972,"longitude":-161.83778,"uct":-480,"website":""},{"id":642,"iata":"BEU","icao":"YBIE","name":"Bedourie Airport","location":"Bedourie, Queensland, Australia","street_number":"","street":"","city":"Bedourie","county":"Diamantina Shire","state":"Queensland","country_iso":"AU","country":"Australia","postal_code":"4829","phone":"","latitude":-24.352947,"longitude":139.46375,"uct":600,"website":""},{"id":646,"iata":"BEY","icao":"OLBA","name":"Beirut–Rafic Hariri International Airport / Beirut Air Base","location":"Beirut, Lebanon","street_number":"","street":"","city":"Beirut","county":"Beirut","state":"Beirut Governorate","country_iso":"LB","country":"Lebanon","postal_code":"","phone":"+961 1 628 000","latitude":33.819374,"longitude":35.491203,"uct":180,"website":"http://www.beirutairport.gov.lb/"},{"id":652,"iata":"BFF","icao":"KBFF","name":"Western Nebraska Regional Airport (William B. Heilig Field)","location":"Scottsbluff, Nebraska, United States","street_number":"250023","street":"Airport Road","city":"Scottsbluff","county":"Scotts Bluff County","state":"Nebraska","country_iso":"US","country":"United States","postal_code":"69361","phone":"+1 308-635-4941","latitude":41.873547,"longitude":-103.595024,"uct":-360,"website":"http://flyscottsbluff.com/board.html"},{"id":656,"iata":"BFJ","icao":"ZUBJ","name":"Bijie Feixiong Airport","location":"Bijie, Guizhou, China","street_number":"","street":"Airport Road","city":"Zhaotong Shi","county":"","state":"Yunnan Sheng","country_iso":"CN","country":"China","postal_code":"","phone":"+86 870 283 0004","latitude":27.324408,"longitude":103.75462,"uct":480,"website":"http://zt.ynairport.com/"},{"id":665,"iata":"BFS","icao":"EGAA","name":"Belfast International Airport","location":"Belfast, Northern Ireland, United Kingdom","street_number":"","street":"Airport Road","city":"","county":"Antrim","state":"Northern Ireland","country_iso":"GB","country":"United Kingdom","postal_code":"BT29 4AB","phone":"+44 28 9448 4848","latitude":54.66178,"longitude":-6.216244,"uct":60,"website":"http://www.belfastairport.com/"},{"id":668,"iata":"BFV","icao":"VTUO","name":"Buriram Airport","location":"Buriram, Thailand","street_number":"","street":"","city":"","county":"Satuek District","state":"Buri Ram","country_iso":"TH","country":"Thailand","postal_code":"31150","phone":"+66 44 680 086","latitude":15.228529,"longitude":103.25067,"uct":420,"website":""},{"id":671,"iata":"BGA","icao":"SKBG","name":"Palonegro International Airport","location":"Bucaramanga, Colombia","street_number":"","street":"","city":"Lebrija","county":"","state":"Santander","country_iso":"CO","country":"Colombia","postal_code":"","phone":"+57 1 7433073","latitude":7.1280894,"longitude":-73.181274,"uct":-300,"website":"http://bga.aerooriente.com.co/"},{"id":673,"iata":"BGC","icao":"LPBG","name":"Bragança Airport","location":"Bragança, Portugal","street_number":"","street":"Aeródromo de Bragança","city":"Bragança","county":"","state":"Bragança","country_iso":"PT","country":"Portugal","postal_code":"5300-000","phone":"+351 273 381 175","latitude":41.85719,"longitude":-6.70726,"uct":60,"website":"https://www.cm-braganca.pt/pages/125"},{"id":676,"iata":"BGF","icao":"FEFF","name":"Bangui M'Poko International Airport","location":"Bangui, Central African Republic","street_number":"","street":"Avenue de France","city":"Bangui","county":"Bangui","state":"Bangui","country_iso":"CF","country":"Central African Republic","postal_code":"","phone":"","latitude":4.396111,"longitude":18.520279,"uct":60,"website":""},{"id":679,"iata":"BGI","icao":"TBPB","name":"Grantley Adams International Airport","location":"Bridgetown, Barbados","street_number":"","street":"Airport Access Road","city":"","county":"","state":"Christ Church","country_iso":"BB","country":"Barbados","postal_code":"","phone":"+1 246-536-1302","latitude":13.076585,"longitude":-59.487793,"uct":-240,"website":"https://www.gaia.bb/"},{"id":685,"iata":"BGO","icao":"ENBR","name":"Bergen Airport, Flesland","location":"Bergen, Norway","street_number":"555","street":"Flyplassvegen","city":"Bergen","county":"Bergen","state":"Hordaland","country_iso":"NO","country":"Norway","postal_code":"5258","phone":"+47 67 03 15 55","latitude":60.29183,"longitude":5.2220173,"uct":120,"website":"https://avinor.no/flyplass/bergen/"},{"id":688,"iata":"BGR","icao":"KBGR","name":"Bangor International Airport","location":"Bangor, Maine, United States","street_number":"287","street":"Godfrey Boulevard","city":"Bangor","county":"Penobscot County","state":"Maine","country_iso":"US","country":"United States","postal_code":"4401","phone":"+1 207-992-4600","latitude":44.806927,"longitude":-68.82327,"uct":-240,"website":"http://www.flybangor.com/"},{"id":692,"iata":"BGW","icao":"ORBI","name":"Baghdad International Airport","location":"Baghdad, Iraq","street_number":"","street":"Airport Street","city":"Baghdad","county":"","state":"","country_iso":"IQ","country":"Iraq","postal_code":"","phone":"+964 790 140 3537","latitude":33.267014,"longitude":44.23116,"uct":180,"website":"http://www.baghdad-airport.com/"},{"id":697,"iata":"BHB","icao":"KBHB","name":"Hancock County-Bar Harbor Airport","location":"Bar Harbor, Maine, United States","street_number":"","street":"","city":"Trenton","county":"Hancock County","state":"Maine","country_iso":"US","country":"United States","postal_code":"4605","phone":"+1 207-667-7329","latitude":44.4451,"longitude":-68.36213,"uct":-240,"website":"http://www.bhbairport.com/"},{"id":699,"iata":"BHE","icao":"NZWB","name":"Woodbourne Airport","location":"Blenheim, New Zealand","street_number":"1","street":"Tancred Crescent","city":"Woodbourne","county":"","state":"Marlborough","country_iso":"NZ","country":"New Zealand","postal_code":"7206","phone":"+64 3-573 5580","latitude":-41.51361,"longitude":173.86736,"uct":780,"website":"https://www.omegarentalcars.com/blenheim-airport-car-rental/?utm_source=google&utm_medium=organic&utm_campaign=gmb&utm_content=blenheim"},{"id":702,"iata":"BHH","icao":"OEBH","name":"Bisha Domestic Airport","location":"Bisha, Saudi Arabia","street_number":"","street":"","city":"Bisha","county":"","state":"Aseer Province","country_iso":"SA","country":"Saudi Arabia","postal_code":"","phone":"+966 9200 11233","latitude":19.98597,"longitude":42.62203,"uct":180,"website":"http://www.gaca.gov.sa/"},{"id":704,"iata":"BHJ","icao":"VABJ","name":"Bhuj Airport / Bhuj Rudra Mata Air Force Base","location":"Bhuj, Gujarat, India","street_number":"","street":"","city":"Bhuj","county":"Kutch","state":"Gujarat","country_iso":"IN","country":"India","postal_code":"370001","phone":"+91 2832 244 147","latitude":23.2856,"longitude":69.67067,"uct":330,"website":""},{"id":705,"iata":"BHK","icao":"UTSB","name":"Bukhara International Airport","location":"Bukhara, Uzbekistan","street_number":"","street":"","city":"Bukhara","county":"Bukhara District","state":"Bukhara Region","country_iso":"UZ","country":"Uzbekistan","postal_code":"","phone":"+998 65 780 10 67","latitude":39.760323,"longitude":64.47532,"uct":300,"website":"https://www.uzairways.com/uz/flights/buxoro-xalqaro-aeroporti"},{"id":711,"iata":"BHQ","icao":"YBHI","name":"Broken Hill Airport","location":"Broken Hill, New South Wales, Australia","street_number":"","street":"Broken Hill Airport Bonanza St","city":"Broken Hill","county":"Broken Hill City Council","state":"New South Wales","country_iso":"AU","country":"Australia","postal_code":"2880","phone":"","latitude":-31.99874,"longitude":141.47012,"uct":630,"website":"https://www.brokenhill.nsw.gov.au/services/facilities/airport"},{"id":713,"iata":"BHS","icao":"YBTH","name":"Bathurst Airport","location":"Bathurst, New South Wales, Australia","street_number":"","street":"","city":"Raglan","county":"Bathurst Regional Council","state":"New South Wales","country_iso":"AU","country":"Australia","postal_code":"2795","phone":"+61 2 6337 3158","latitude":-33.413685,"longitude":149.65508,"uct":660,"website":"https://www.avis.com.au/en/locations/au/ns/bathurst/bhs?utm_source=GMB&utm_medium=organic&utm_campaign=Bathurst-Airport"},{"id":715,"iata":"BHU","icao":"VABV","name":"Bhavnagar Airport","location":"Bhavnagar, Gujarat, India","street_number":"","street":"","city":"Bhavnagar","county":"Bhavnagar","state":"Gujarat","country_iso":"IN","country":"India","postal_code":"364001","phone":"+91 278 220 3113","latitude":21.75378,"longitude":72.183426,"uct":330,"website":""},{"id":716,"iata":"BHV","icao":"OPBW","name":"Bahawalpur Airport","location":"Bahawalpur, Pakistan","street_number":"","street":"Airport Road","city":"Bahawalpur","county":"Bahawalpur","state":"Punjab","country_iso":"PK","country":"Pakistan","postal_code":"","phone":"+92 62 9255014","latitude":29.34989,"longitude":71.71123,"uct":300,"website":"http://caapakistan.com.pk/"},{"id":718,"iata":"BHX","icao":"EGBB","name":"Birmingham Airport","location":"Birmingham, England, United Kingdom","street_number":"","street":"","city":"","county":"West Midlands","state":"England","country_iso":"GB","country":"United Kingdom","postal_code":"B26 3QJ","phone":"+44 871 222 0072","latitude":52.45238,"longitude":-1.7435071,"uct":60,"website":"http://www.birminghamairport.co.uk/"},{"id":721,"iata":"BIA","icao":"LFKB","name":"Bastia – Poretta Airport","location":"Bastia, Corsica, France","street_number":"","street":"","city":"","county":"Haute-Corse","state":"Corsica","country_iso":"FR","country":"France","postal_code":"20290","phone":"","latitude":42.55438,"longitude":9.481487,"uct":120,"website":"http://www.bastia.aeroport.fr/"},{"id":731,"iata":"BIL","icao":"KBIL","name":"Billings Logan International Airport","location":"Billings, Montana, United States","street_number":"1901","street":"Terminal Circle","city":"Billings","county":"Yellowstone County","state":"Montana","country_iso":"US","country":"United States","postal_code":"59105","phone":"+1 406-247-8609","latitude":45.80351,"longitude":-108.53791,"uct":-360,"website":"http://www.flybillings.com/"},{"id":732,"iata":"BIM","icao":"MYBS","name":"South Bimini Airport","location":"Bimini, Bahamas","street_number":"","street":"","city":"South Bimini","county":"","state":"Bimini","country_iso":"BS","country":"The Bahamas","postal_code":"","phone":"+1 242-347-4111","latitude":25.701363,"longitude":-79.2726,"uct":-240,"website":"https://nfdc.faa.gov/nfdcApps/airportLookup/airportDisplay.jsp?category=nasr&airportId=MYBS"},{"id":734,"iata":"BIO","icao":"LEBB","name":"Bilbao Airport","location":"Bilbao, Basque Country, Spain","street_number":"","street":"","city":"Loiu","county":"Bizkaia","state":"Euskadi","country_iso":"ES","country":"Spain","postal_code":"48180","phone":"+34 913 21 10 00","latitude":43.302494,"longitude":-2.911116,"uct":120,"website":"http://www.aena.es/es/aeropuerto-bilbao/index.html"},{"id":736,"iata":"BIQ","icao":"LFBZ","name":"Biarritz Pays Basque Airport","location":"Biarritz, Aquitaine, France","street_number":"7","street":"Esplanade de l'Europe","city":"Anglet","county":"Pyrénées-Atlantiques","state":"Nouvelle-Aquitaine","country_iso":"FR","country":"France","postal_code":"64600","phone":"+33 5 59 43 83 83","latitude":43.469193,"longitude":-1.5302868,"uct":120,"website":"http://www.biarritz.aeroport.fr/"},{"id":737,"iata":"BIR","icao":"VNVT","name":"Biratnagar Airport","location":"Biratnagar, Nepal","street_number":"","street":"","city":"Biratnagar","county":"Koshi","state":"Eastern Development Region","country_iso":"NP","country":"Nepal","postal_code":"56613","phone":"+977 21-462060","latitude":26.482447,"longitude":87.26352,"uct":345,"website":"http://www.caanepal.org.np/"},{"id":738,"iata":"BIS","icao":"KBIS","name":"Bismarck Municipal Airport","location":"Bismarck, North Dakota, United States","street_number":"2301","street":"University Drive","city":"Bismarck","county":"Burleigh County","state":"North Dakota","country_iso":"US","country":"United States","postal_code":"58504","phone":"+1 701-355-1800","latitude":46.77519,"longitude":-100.75725,"uct":-300,"website":"http://www.bismarckairport.com/"},{"id":746,"iata":"BJA","icao":"DAAE","name":"Soummam – Abane Ramdane Airport","location":"Béjaïa, Algeria","street_number":"","street":"","city":"Béjaïa","county":"","state":"Béjaïa Province","country_iso":"DZ","country":"Algeria","postal_code":"6000","phone":"+213 34 18 30 14","latitude":36.715378,"longitude":5.0712886,"uct":60,"website":"http://www.egsa-alger.dz/"},{"id":747,"iata":"BJB","icao":"OIMN","name":"Bojnord Airport","location":"Bojnord, Iran","street_number":"","street":"Airport Boulevard","city":"Bojnurd","county":"Bojnurd","state":"Khorasan","country_iso":"IR","country":"Iran","postal_code":"","phone":"+98 58 3223 6570","latitude":37.489807,"longitude":57.307716,"uct":210,"website":"http://bojnord.airport.ir/"},{"id":757,"iata":"BJL","icao":"GBYD","name":"Banjul International Airport","location":"Banjul, Gambia","street_number":"","street":"","city":"Yundum","county":"Kombo North","state":"West Coast Region","country_iso":"GM","country":"The Gambia","postal_code":"","phone":"+220 447 3000","latitude":13.34406,"longitude":-16.6522,"uct":0,"website":"http://www.banjulairport.com/"},{"id":758,"iata":"BJM","icao":"HBBA","name":"Bujumbura International Airport","location":"Bujumbura, Burundi","street_number":"","street":"R.N.5","city":"Bujumbura","county":"Buterere","state":"Bujumbura Mairie","country_iso":"BI","country":"Burundi","postal_code":"","phone":"","latitude":-3.3191886,"longitude":29.320621,"uct":120,"website":""},{"id":763,"iata":"BJR","icao":"HABD","name":"Bahir Dar Airport","location":"Bahir Dar, Ethiopia","street_number":"","street":"","city":"Bahir Dar","county":"","state":"Amhara","country_iso":"ET","country":"Ethiopia","postal_code":"","phone":"+251 58 226 0033","latitude":11.602981,"longitude":37.32352,"uct":180,"website":""},{"id":767,"iata":"BJV","icao":"LTFE","name":"Milas–Bodrum Airport","location":"Milas / Bodrum, Turkey","street_number":"","street":"Milas Bodrum Havaalanı Girişi","city":"","county":"Milas","state":"Muğla","country_iso":"TR","country":"Turkey","postal_code":"48200","phone":"+90 252 523 01 01","latitude":37.248657,"longitude":27.663992,"uct":180,"website":"http://www.milasbodrum.dhmi.gov.tr/"},{"id":771,"iata":"BJZ","icao":"LEBZ","name":"Badajoz Airport (Talavera la Real Air Base)","location":"Badajoz, Extremadura, Spain","street_number":"s/n","street":"Ctra. Badajoz-Balboa","city":"Badajoz","county":"Badajoz","state":"Extremadura","country_iso":"ES","country":"Spain","postal_code":"6195","phone":"+34 913 21 10 00","latitude":38.893955,"longitude":-6.8188176,"uct":120,"website":"http://www.aena.es/es/aeropuerto-badajoz/index.html"},{"id":780,"iata":"BKI","icao":"WBKK","name":"Kota Kinabalu International Airport","location":"Kota Kinabalu, Sabah, Malaysia","street_number":"","street":"","city":"Kota Kinabalu","county":"","state":"Sabah","country_iso":"MY","country":"Malaysia","postal_code":"88740","phone":"+60 88-325 555","latitude":5.923076,"longitude":116.05102,"uct":480,"website":"http://www.malaysiaairports.com.my/index.php/component/content/article/177"},{"id":782,"iata":"BKK","icao":"VTBS","name":"Suvarnabhumi Airport","location":"Bangkok, Thailand","street_number":"999","street":"หมู่ 1","city":"Nong Prue","county":"Amphoe Bang Phli","state":"Chang Wat Samut Prakan","country_iso":"TH","country":"Thailand","postal_code":"10540","phone":"+66 2 132 1888","latitude":13.689999,"longitude":100.750114,"uct":420,"website":"http://www.suvarnabhumiairport.com/"},{"id":786,"iata":"BKO","icao":"GABS","name":"Bamako–Sénou International Airport","location":"Bamako, Mali","street_number":"","street":"","city":"Bamako","county":"Bamako","state":"Bamako Capital District","country_iso":"ML","country":"Mali","postal_code":"","phone":"+223 20 20 27 01","latitude":12.540926,"longitude":-7.947951,"uct":0,"website":"http://aeroports-mali.ml/"},{"id":788,"iata":"BKQ","icao":"YBCK","name":"Blackall Airport","location":"Blackall, Queensland, Australia","street_number":"","street":"Landsborough Highway","city":"Blackall","county":"Blackall Tambo Regional","state":"Queensland","country_iso":"AU","country":"Australia","postal_code":"4472","phone":"","latitude":-24.428423,"longitude":145.43385,"uct":600,"website":""},{"id":793,"iata":"BKW","icao":"KBKW","name":"Raleigh County Memorial Airport","location":"Beckley, West Virginia, United States","street_number":"176","street":"Airport Road","city":"Beaver","county":"Raleigh County","state":"West Virginia","country_iso":"US","country":"United States","postal_code":"25813","phone":"+1 304-255-0476","latitude":37.791668,"longitude":-81.12345,"uct":-240,"website":"http://www.flybeckley.com/"},{"id":797,"iata":"BLA","icao":"SVBC","name":"General José Antonio Anzoátegui International Airport","location":"Barcelona, Venezuela","street_number":"","street":"","city":"Barcelona","county":"Simon Bolivar","state":"Anzoategui","country_iso":"VE","country":"Venezuela","postal_code":"6001","phone":"+58 281-2752035","latitude":10.104063,"longitude":-64.6822,"uct":-240,"website":"http://aigdjaa.baer.gob.ve/"},{"id":802,"iata":"BLF","icao":"KBLF","name":"Mercer County Airport","location":"Bluefield, West Virginia, United States","street_number":"1100","street":"Terminal Circle Drive","city":"Ewing Township","county":"Mercer County","state":"New Jersey","country_iso":"US","country":"United States","postal_code":"8628","phone":"+1 609-882-1601","latitude":40.277813,"longitude":-74.81372,"uct":-240,"website":"http://www.mercercounty.org/departments/transportation-and-infrastructure/trenton-mercer-airport"},{"id":805,"iata":"BLI","icao":"KBLI","name":"Bellingham International Airport","location":"Bellingham, Washington, United States","street_number":"4255","street":"Mitchell Way","city":"Bellingham","county":"Whatcom County","state":"Washington","country_iso":"US","country":"United States","postal_code":"98226","phone":"+1 360-671-5674","latitude":48.795578,"longitude":-122.533066,"uct":-420,"website":"http://www.portofbellingham.com/index.aspx?nid=82"},{"id":807,"iata":"BLK","icao":"EGNH","name":"Blackpool Airport","location":"Blackpool, England, United Kingdom","street_number":"189","street":"Squires Gate Lane","city":"","county":"Lancashire","state":"England","country_iso":"GB","country":"United Kingdom","postal_code":"FY4 2QY","phone":"+44 1253 343434","latitude":53.772255,"longitude":-3.0331445,"uct":60,"website":"http://blackpoolairport.com/"},{"id":813,"iata":"BLQ","icao":"LIPE","name":"Bologna Guglielmo Marconi Airport","location":"Bologna, Emilia-Romagna, Italy","street_number":"84","street":"Via del Triumvirato","city":"","county":"Città Metropolitana di Bologna","state":"Emilia-Romagna","country_iso":"IT","country":"Italy","postal_code":"40132","phone":"+39 051 647 9615","latitude":44.534523,"longitude":11.287859,"uct":120,"website":"http://www.bologna-airport.it/"},{"id":814,"iata":"BLR","icao":"VOBL","name":"Kempegowda International Airport","location":"Bangalore, Karnataka, India","street_number":"","street":"KIAL Road","city":"Bengaluru","county":"","state":"Karnataka","country_iso":"IN","country":"India","postal_code":"560300","phone":"+91 1800 425 4425","latitude":13.198635,"longitude":77.7066,"uct":330,"website":"http://www.bengaluruairport.com/"},{"id":818,"iata":"BLV","icao":"KBLV","name":"MidAmerica St. Louis Airport / Scott Air Force Base","location":"Belleville, Illinois, United States","street_number":"9656","street":"Air Terminal Drive","city":"Mascoutah","county":"St. Clair County","state":"Illinois","country_iso":"US","country":"United States","postal_code":"62258","phone":"+1 618-566-5200","latitude":38.5492,"longitude":-89.82164,"uct":-300,"website":"http://www.flymidamerica.com/"},{"id":821,"iata":"BLZ","icao":"FWCL","name":"Chileka International Airport","location":"Blantyre, Malawi","street_number":"","street":"","city":"","county":"Blantyre","state":"Southern Region","country_iso":"MW","country":"Malawi","postal_code":"","phone":"+260 97 4560039","latitude":-15.681326,"longitude":34.971706,"uct":120,"website":""},{"id":826,"iata":"BME","icao":"YBRM","name":"Broome International Airport","location":"Broome, Western Australia, Australia","street_number":"","street":"Macpherson Street","city":"Broome","county":"Shire of Broome","state":"Western Australia","country_iso":"AU","country":"Australia","postal_code":"6725","phone":"+61 8 9194 0600","latitude":-17.952555,"longitude":122.23377,"uct":480,"website":"http://www.broomeair.com.au/"},{"id":843,"iata":"BMV","icao":"VVBM","name":"Buon Ma Thuot Airport","location":"Buon Ma Thuot, Vietnam","street_number":"","street":"","city":"Thành phố Buôn Ma Thuột","county":"Thành phố Buôn Ma Thuột","state":"Đắk Lắk","country_iso":"VN","country":"Vietnam","postal_code":"","phone":"+84 262 3862 248","latitude":12.664714,"longitude":108.117226,"uct":420,"website":"https://vietnamairport.vn/buonmathuotairport/"},{"id":851,"iata":"BND","icao":"OIKB","name":"Bandar Abbas International Airport","location":"Bandar Abbas, Iran","street_number":"","street":"","city":"Bandar Abbas","county":"","state":"Hormozgan Province","country_iso":"IR","country":"Iran","postal_code":"","phone":"+98 76 3361 1020","latitude":27.209497,"longitude":56.368767,"uct":210,"website":"https://bandarabbas.airport.ir/"},{"id":864,"iata":"BNS","icao":"SVBI","name":"Barinas Airport","location":"Barinas, Venezuela","street_number":"","street":"","city":"Santa Bárbara","county":"Ezequiel Zamora","state":"Barinas","country_iso":"VE","country":"Venezuela","postal_code":"5210","phone":"","latitude":7.804783,"longitude":-71.16591,"uct":-240,"website":""},{"id":869,"iata":"BNX","icao":"LQBK","name":"Banja Luka International Airport","location":"Banja Luka, Bosnia and Herzegovina","street_number":"","street":"Mahovljani","city":"Mahovljani","county":"","state":"Republika Srpska","country_iso":"BA","country":"Bosnia and Herzegovina","postal_code":"78250","phone":"+387 51 535-210","latitude":44.933628,"longitude":17.30379,"uct":120,"website":"http://www.banjaluka-airport.com/"},{"id":874,"iata":"BOC","icao":"MPBO","name":"Bocas del Toro \"Isla Colón\" International Airport","location":"Bocas Town, Panama","street_number":"","street":"","city":"Bocas del Toro","county":"Bocas del Toro","state":"","country_iso":"PA","country":"Panama","postal_code":"","phone":"+507 757-9208","latitude":9.340505,"longitude":-82.24429,"uct":-300,"website":""},{"id":878,"iata":"BOH","icao":"EGHH","name":"Bournemouth Airport","location":"Bournemouth, England, United Kingdom","street_number":"","street":"Parley Lane","city":"","county":"Dorset","state":"England","country_iso":"GB","country":"United Kingdom","postal_code":"BH23 6SE","phone":"+44 1202 364000","latitude":50.78076,"longitude":-1.8389935,"uct":60,"website":"http://www.bournemouthairport.com/"},{"id":880,"iata":"BOJ","icao":"LBBG","name":"Burgas Airport","location":"Burgas, Bulgaria","street_number":"","street":"","city":"Burgas","county":"","state":"Burgas","country_iso":"BG","country":"Bulgaria","postal_code":"","phone":"+359 56 870 248","latitude":42.56527,"longitude":27.516087,"uct":180,"website":"http://www.bourgas-airport.com/"},{"id":884,"iata":"BON","icao":"TNCB","name":"Flamingo International Airport","location":"Kralendijk, Bonaire, Caribbean Netherlands","street_number":"","street":"","city":"Kralendijk","county":"","state":"Bonaire","country_iso":"BQ","country":"Caribbean Netherlands","postal_code":"","phone":"+599 717 5600","latitude":12.133385,"longitude":-68.27688,"uct":-240,"website":"http://www.flamingoairport.com/"},{"id":885,"iata":"BOO","icao":"ENBO","name":"Bodø Airport","location":"Bodø, Norway","street_number":"","street":"Olav V gate","city":"","county":"Bodø","state":"Nordland","country_iso":"NO","country":"Norway","postal_code":"8004","phone":"+47 67 03 35 00","latitude":67.26831,"longitude":14.362237,"uct":120,"website":"https://avinor.no/flyplass/bodo/"},{"id":888,"iata":"BOS","icao":"KBOS","name":"Logan International Airport","location":"Boston, Massachusetts, United States","street_number":"1","street":"Harborside Drive","city":"Boston","county":"Suffolk County","state":"Massachusetts","country_iso":"US","country":"United States","postal_code":"2128","phone":"+1 800-235-6426","latitude":42.365612,"longitude":-71.00956,"uct":-240,"website":"http://www.massport.com/logan-airport"},{"id":905,"iata":"BPL","icao":"ZWBL","name":"Bole Alashankou Airport","location":"Bole, Xinjiang, China","street_number":"","street":"","city":"Bortala","county":"","state":"Xinjiang","country_iso":"CN","country":"China","postal_code":"","phone":"","latitude":44.90029,"longitude":82.30272,"uct":480,"website":""},{"id":908,"iata":"BPS","icao":"SBPS","name":"Porto Seguro Airport","location":"Porto Seguro, Bahia, Brazil","street_number":"68","street":"Rua Primeiro de Maio","city":"","county":"Porto Seguro","state":"Bahia","country_iso":"BR","country":"Brazil","postal_code":"45810-000","phone":"+55 73 3288-1880","latitude":-16.439308,"longitude":-39.081562,"uct":-180,"website":"http://www.aeroportoseguro.com.br/"},{"id":910,"iata":"BPX","icao":"ZUBD","name":"Qamdo Bamda Airport","location":"Qamdo, Tibet Autonomous Region, China","street_number":"","street":"","city":"Qamdo","county":"","state":"Tibet","country_iso":"CN","country":"China","postal_code":"","phone":"","latitude":30.549778,"longitude":97.106514,"uct":480,"website":""},{"id":912,"iata":"BQA","icao":"RPUR","name":"Dr. Juan C. Angara Airport","location":"Baler, Philippines","street_number":"","street":"","city":"San Luis","county":"Aurora","state":"Central Luzon","country_iso":"PH","country":"Philippines","postal_code":"","phone":"","latitude":15.729295,"longitude":121.49882,"uct":480,"website":""},{"id":919,"iata":"BQK","icao":"KBQK","name":"Brunswick Golden Isles Airport","location":"Brunswick, Georgia, United States","street_number":"295","street":"Aviation Parkway","city":"Brunswick","county":"Glynn County","state":"Georgia","country_iso":"US","country":"United States","postal_code":"31525","phone":"+1 912-265-2070","latitude":31.254833,"longitude":-81.46691,"uct":-240,"website":"http://www.flygcairports.com/"},{"id":925,"iata":"BQT","icao":"UMBB","name":"Brest Airport","location":"Brest, Belarus","street_number":"","street":"","city":"Guipavas","county":"Finistère","state":"Bretagne","country_iso":"FR","country":"France","postal_code":"29490","phone":"+33 2 98 32 86 00","latitude":48.44764,"longitude":-4.4178324,"uct":120,"website":"http://www.brest.aeroport.bzh/"},{"id":931,"iata":"BRC","icao":"SAZS","name":"San Carlos de Bariloche Airport","location":"San Carlos de Bariloche, Río Negro, Argentina","street_number":"S/N","street":"Acceso A Aeropuerto Internacional Teniente L. Candelar","city":"San Carlos de Bariloche","county":"","state":"Río Negro","country_iso":"AR","country":"Argentina","postal_code":"","phone":"+54 294 440-5016","latitude":-41.146713,"longitude":-71.16203,"uct":-180,"website":"http://www.aa2000.com.ar/"},{"id":932,"iata":"BRD","icao":"KBRD","name":"Brainerd Lakes Regional Airport","location":"Brainerd, Minnesota, United States","street_number":"16384","street":"Airport Road","city":"Brainerd","county":"Crow Wing County","state":"Minnesota","country_iso":"US","country":"United States","postal_code":"56401","phone":"+1 218-825-2166","latitude":46.393047,"longitude":-94.141266,"uct":-300,"website":"http://brainerdairport.com/"},{"id":935,"iata":"BRI","icao":"LIBD","name":"Bari Karol Wojtyła Airport","location":"Bari, Apulia, Italy","street_number":"","street":"Viale Enzo Ferrari","city":"","county":"Città Metropolitana di Bari","state":"Puglia","country_iso":"IT","country":"Italy","postal_code":"70128","phone":"+39 080 580 0200","latitude":41.13751,"longitude":16.765202,"uct":120,"website":"http://www.aeroportidipuglia.it/"},