[{"id":1,"iata":"AAA","icao":"NTGA","name":"Anaa Airport","location":"Anaa, Tuamotus, French Polynesia","street_number":"","street":"","city":"","county":"Tuamotus Islands","state":"","country_iso":"PF","country":"French Polynesia","postal_code":"","phone":"","latitude":-16.68686,"longitude":-145.33267,"uct":-600,"website":"","stripped_name":"Anaa"},{"id":3,"iata":"AAC","icao":"HEAR","name":"El Arish International Airport","location":"El Arish, Egypt","street_number":"","street":"","city":"","county":"Qesm Thaleth Al Arish","state":"North Sinai Governorate","country_iso":"EG","country":"Egypt","postal_code":"","phone":"","latitude":31.07809,"longitude":33.836075,"uct":120,"website":"","stripped_name":"El Arish"},{"id":5,"iata":"AAE","icao":"DABB","name":"Rabah Bitat Airport (Les Salines Airport)","location":"Annaba, Algeria","street_number":"","street":"","city":"Annaba","county":"","state":"Annaba Province","country_iso":"DZ","country":"Algeria","postal_code":"","phone":"+213 38 59 00 01","latitude":36.82406,"longitude":7.8215694,"uct":60,"website":"http://www.aeroport-d-annaba-rabah-bitat.com/","stripped_name":"Rabah Bitat  (Les Salines )"},{"id":12,"iata":"AAL","icao":"EKYT","name":"Aalborg Airport","location":"Aalborg, Denmark","street_number":"100","street":"Ny Lufthavnsvej","city":"Nørresundby","county":"","state":"","country_iso":"DK","country":"Denmark","postal_code":"9400","phone":"+45 98 17 11 44","latitude":57.09692,"longitude":9.856463,"uct":120,"website":"http://www.aal.dk/","stripped_name":"Aalborg"},{"id":13,"iata":"AAM","icao":"FAMD","name":"Mala Mala Airport","location":"Mala Mala, South Africa","street_number":"","street":"","city":"Kruger Park","county":"Ehlanzeni","state":"Mpumalanga","country_iso":"ZA","country":"South Africa","postal_code":"","phone":"","latitude":-24.815424,"longitude":31.543955,"uct":120,"website":"","stripped_name":"Mala Mala"},{"id":14,"iata":"AAN","icao":"OMAL","name":"Al Ain International Airport","location":"Al Ain, United Arab Emirates","street_number":"","street":"","city":"Al Ain","county":"Eastern Region","state":"Abu Dhabi","country_iso":"AE","country":"United Arab Emirates","postal_code":"","phone":"+971 2 505 5000","latitude":24.258514,"longitude":55.61944,"uct":240,"website":"http://www.adac.ae/english/what-we-do/airports/al-ain-international-airport","stripped_name":"Al Ain"},{"id":16,"iata":"AAQ","icao":"URKA","name":"Anapa Airport","location":"Anapa, Krasnodar Krai, Russia","street_number":"","street":"Анапа-7","city":"п. Витязево","county":"Anapsky District","state":"Krasnodarskiy kray","country_iso":"RU","country":"Russia","postal_code":"353419","phone":"+7 800 301-19-91","latitude":45.003014,"longitude":37.340843,"uct":180,"website":"","stripped_name":"Anapa"},{"id":17,"iata":"AAR","icao":"EKAH","name":"Aarhus Airport","location":"Aarhus, Denmark","street_number":"24","street":"Ny Lufthavnsvej","city":"Kolind","county":"","state":"","country_iso":"DK","country":"Denmark","postal_code":"8560","phone":"+45 87 75 70 00","latitude":56.307514,"longitude":10.628102,"uct":120,"website":"http://www.aar.dk/","stripped_name":"Aarhus"},{"id":19,"iata":"AAT","icao":"ZWAT","name":"Altay Airport","location":"Altay, Xinjiang, China","street_number":"","street":"","city":"","county":"","state":"","country_iso":"","country":"","postal_code":"","phone":"","latitude":0,"longitude":0,"uct":0,"website":"","stripped_name":"Altay"},{"id":23,"iata":"AAY","icao":"OYGD","name":"Al Ghaydah Airport","location":"Al Ghaydah, Yemen","street_number":"","street":"","city":"Salalah","county":"","state":"Dhofar Governorate","country_iso":"OM","country":"Oman","postal_code":"","phone":"+968 23 367461","latitude":17.048855,"longitude":54.087547,"uct":240,"website":"http://salalahairport.co.om/","stripped_name":"Al Ghaydah"},{"id":25,"iata":"ABA","icao":"UNAA","name":"Abakan International Airport","location":"Abakan, Republic of Khakassia, Russia","street_number":"59","street":"улица Дружбы Народов","city":"Abakan","county":"","state":"Khakasiya Republits","country_iso":"RU","country":"Russia","postal_code":"655008","phone":"+7 390 228-28-54","latitude":53.751186,"longitude":91.399734,"uct":420,"website":"http://abakan-airport.ru/","stripped_name":"Abakan"},{"id":28,"iata":"ABD","icao":"OIAA","name":"Abadan International Airport","location":"Abadan, Iran","street_number":"","street":"بلوار بهارستان","city":"Abadan","county":"","state":"Khuzestan Province","country_iso":"IR","country":"Iran","postal_code":"","phone":"+98 61 5336 6494","latitude":30.364117,"longitude":48.22691,"uct":210,"website":"","stripped_name":"Abadan"},{"id":29,"iata":"ABE","icao":"KABE","name":"Lehigh Valley International Airport","location":"Allentown, Pennsylvania, United States","street_number":"3311","street":"Airport Road","city":"Allentown","county":"Lehigh County","state":"Pennsylvania","country_iso":"US","country":"United States","postal_code":"18109","phone":"+1 610-266-6000","latitude":40.651833,"longitude":-75.441414,"uct":-240,"website":"http://www.flylvia.com/","stripped_name":"Lehigh Valley"},{"id":33,"iata":"ABI","icao":"KABI","name":"Abilene Regional Airport","location":"Abilene, Texas, United States","street_number":"2933","street":"Airport Boulevard","city":"Abilene","county":"Taylor County","state":"Texas","country_iso":"US","country":"United States","postal_code":"79602","phone":"+1 325-676-6367","latitude":32.411896,"longitude":-99.680046,"uct":-300,"website":"http://iflyabi.com/","stripped_name":"Abilene Regional"},{"id":34,"iata":"ABJ","icao":"DIAP","name":"Port Bouet Airport (Felix Houphouet Boigny Int'l)","location":"Abidjan, Côte d'Ivoire","street_number":"","street":"","city":"Abidjan","county":"Abidjan","state":"Abidjan","country_iso":"CI","country":"Côte d'Ivoire","postal_code":"","phone":"+225 21 75 79 00","latitude":5.2544694,"longitude":-3.9296293,"uct":0,"website":"http://www.aeria-ci.com/","stripped_name":"Port Bouet  (Felix Houphouet Boigny Int'l)"},{"id":35,"iata":"ABK","icao":"HAKD","name":"Kabri Dar Airport","location":"Kebri Dahar, Ethiopia","street_number":"","street":"","city":"Kebri Dehar","county":"Korahe","state":"Somali","country_iso":"ET","country":"Ethiopia","postal_code":"","phone":"","latitude":6.733082,"longitude":44.242275,"uct":180,"website":"","stripped_name":"Kabri Dar"},{"id":41,"iata":"ABQ","icao":"KABQ","name":"Albuquerque International Sunport","location":"Albuquerque, New Mexico, United States","street_number":"2200","street":"Sunport Blvd","city":"Albuquerque","county":"Bernalillo County","state":"New Mexico","country_iso":"US","country":"United States","postal_code":"87106","phone":"+1 505-244-7700","latitude":35.043335,"longitude":-106.61291,"uct":-360,"website":"http://www.cabq.gov/airport/","stripped_name":"Albuquerque  Sunport"},{"id":42,"iata":"ABR","icao":"KABR","name":"Aberdeen Regional Airport","location":"Aberdeen, South Dakota, United States","street_number":"4740","street":"6th Avenue Southeast","city":"Aberdeen","county":"Brown County","state":"South Dakota","country_iso":"US","country":"United States","postal_code":"57401","phone":"+1 605-626-7020","latitude":45.453457,"longitude":-98.417725,"uct":-300,"website":"http://www.aberdeenregionalairport.us/","stripped_name":"Aberdeen Regional"},{"id":43,"iata":"ABS","icao":"HEBL","name":"Abu Simbel Airport","location":"Abu Simbel, Egypt","street_number":"","street":"","city":"","county":"Qesm Al Wahat Al Khargah","state":"New Valley Governorate","country_iso":"EG","country":"Egypt","postal_code":"","phone":"","latitude":22.367252,"longitude":31.610336,"uct":120,"website":"http://www.egyptair.com/","stripped_name":"Abu Simbel"},{"id":44,"iata":"ABT","icao":"OEBA","name":"Al-Baha Domestic Airport","location":"Al-Baha, Saudi Arabia","street_number":"","street":"","city":"Al Bahah","county":"","state":"Al Bahah Province","country_iso":"SA","country":"Saudi Arabia","postal_code":"","phone":"","latitude":20.02174,"longitude":41.47127,"uct":180,"website":"","stripped_name":"Al-Baha Domestic"},{"id":46,"iata":"ABV","icao":"DNAA","name":"Nnamdi Azikiwe International Airport","location":"Abuja, Nigeria","street_number":"","street":"","city":"Abuja","county":"Municipal Area Coun","state":"Federal Capital Territory","country_iso":"NG","country":"Nigeria","postal_code":"","phone":"","latitude":9.004025,"longitude":7.2690525,"uct":60,"website":"http://www.faan.gov.ng/nnamdi-azikwe-international-airport/","stripped_name":"Nnamdi Azikiwe"},{"id":48,"iata":"ABX","icao":"YMAY","name":"Albury Airport","location":"Albury, New South Wales, Australia","street_number":"121","street":"Airport Drive","city":"East Albury","county":"Albury City Council","state":"New South Wales","country_iso":"AU","country":"Australia","postal_code":"2640","phone":"+61 2 6043 5865","latitude":-36.06841,"longitude":146.95454,"uct":660,"website":"http://flyalbury.com.au/","stripped_name":"Albury"},{"id":49,"iata":"ABY","icao":"KABY","name":"Southwest Georgia Regional Airport","location":"Albany, Georgia, United States","street_number":"3905","street":"Newton Road","city":"Albany","county":"Dougherty County","state":"Georgia","country_iso":"US","country":"United States","postal_code":"31701","phone":"+1 229-430-5175","latitude":31.535671,"longitude":-84.19391,"uct":-240,"website":"http://airport.albanyga.gov/","stripped_name":"Southwest Georgia Regional"},{"id":50,"iata":"ABZ","icao":"EGPD","name":"Aberdeen Airport","location":"Aberdeen, Scotland, United Kingdom","street_number":"","street":"","city":"Dyce","county":"Aberdeen City","state":"Scotland","country_iso":"GB","country":"United Kingdom","postal_code":"AB21 7DU","phone":"+44 344 481 6666","latitude":57.203697,"longitude":-2.200162,"uct":60,"website":"http://www.aberdeenairport.com/","stripped_name":"Aberdeen"},{"id":51,"iata":"ACA","icao":"MMAA","name":"General Juan N. Álvarez International Airport","location":"Acapulco, Guerrero, Mexico","street_number":"S/N","street":"Plan de Los Amates","city":"Acapulco","county":"","state":"Guerrero","country_iso":"MX","country":"Mexico","postal_code":"39931","phone":"+52 744 435 2060","latitude":16.76182,"longitude":-99.75439,"uct":-300,"website":"https://www.oma.aero/es/pasajeros/acapulco/","stripped_name":"General Juan N. Álvarez"},{"id":53,"iata":"ACC","icao":"DGAA","name":"Kotoka International Airport","location":"Accra, Ghana","street_number":"","street":"Airport Road","city":"Accra","county":"Accra Metropolis","state":"Greater Accra Region","country_iso":"GH","country":"Ghana","postal_code":"","phone":"+233 30 277 6171","latitude":5.6060953,"longitude":-0.1681235,"uct":0,"website":"http://www.gacl.com.gh/","stripped_name":"Kotoka"},{"id":55,"iata":"ACE","icao":"GCRR","name":"Lanzarote Airport","location":"Lanzarote, Canary Islands, Spain","street_number":"","street":"","city":"","county":"Las Palmas","state":"Canary Islands","country_iso":"ES","country":"Spain","postal_code":"","phone":"+34 913 21 10 00","latitude":28.950438,"longitude":-13.605777,"uct":60,"website":"http://www.aena-aeropuertos.es/es/aeropuerto-lanzarote/index.html","stripped_name":"Lanzarote"},{"id":56,"iata":"ACH","icao":"LSZR","name":"St. Gallen–Altenrhein Airport","location":"Altenrhein, Switzerland","street_number":"11","street":"Flughafenstrasse","city":"Thal","county":"Rorschach","state":"Sankt Gallen","country_iso":"CH","country":"Switzerland","postal_code":"9423","phone":"+41 71 858 51 65","latitude":47.485874,"longitude":9.560018,"uct":120,"website":"http://www.peoples.ch/","stripped_name":"St. Gallen–Altenrhein"},{"id":57,"iata":"ACI","icao":"EGJA","name":"Alderney Airport","location":"Alderney, Channel Islands, United Kingdom","street_number":"","street":"","city":"Saint Anne","county":"","state":"Alderney","country_iso":"GG","country":"Guernsey","postal_code":"GY9","phone":"+44 1481 822624","latitude":49.70875,"longitude":-2.2148435,"uct":60,"website":"http://alderney.gov.gg/article/4153/Airport","stripped_name":"Alderney"},{"id":59,"iata":"ACK","icao":"KACK","name":"Nantucket Memorial Airport","location":"Nantucket, Massachusetts, United States","street_number":"14","street":"Airport Road","city":"Nantucket","county":"Nantucket County","state":"Massachusetts","country_iso":"US","country":"United States","postal_code":"2554","phone":"+1 508-325-5300","latitude":41.25695,"longitude":-70.06375,"uct":-240,"website":"http://www.nantucketairport.com/","stripped_name":"Nantucket Memorial"},{"id":66,"iata":"ACT","icao":"KACT","name":"Waco Regional Airport","location":"Waco, Texas, United States","street_number":"7909","street":"Karl May Drive","city":"Waco","county":"McLennan County","state":"Texas","country_iso":"US","country":"United States","postal_code":"76708","phone":"+1 254-750-8656","latitude":31.61359,"longitude":-97.22629,"uct":-300,"website":"http://www.waco-texas.com/Airport/index.asp","stripped_name":"Waco Regional"},{"id":68,"iata":"ACV","icao":"KACV","name":"Arcata-Eureka Airport","location":"Eureka / Arcata, California, United States","street_number":"3561","street":"Boeing Avenue","city":"McKinleyville","county":"Humboldt County","state":"California","country_iso":"US","country":"United States","postal_code":"95519","phone":"+1 707-839-5401","latitude":40.97092,"longitude":-124.10658,"uct":-420,"website":"http://co.humboldt.ca.us/aviation/content.asp?page=airport_and_airline_information.htm","stripped_name":"Arcata-Eureka"},{"id":69,"iata":"ACX","icao":"ZUYI","name":"Xingyi Wanfenglin Airport","location":"Xingyi, Guizhou, China","street_number":"","street":"","city":"Qianxinan","county":"","state":"","country_iso":"CN","country":"China","postal_code":"","phone":"","latitude":25.085556,"longitude":104.95944,"uct":480,"website":"","stripped_name":"Xingyi Wanfenglin"},{"id":70,"iata":"ACY","icao":"KACY","name":"Atlantic City International Airport","location":"Atlantic City, New Jersey, United States","street_number":"101","street":"Atlantic City International Airport","city":"Egg Harbor Township","county":"Atlantic County","state":"New Jersey","country_iso":"US","country":"United States","postal_code":"8234","phone":"+1 609-645-7895","latitude":39.455776,"longitude":-74.57251,"uct":-240,"website":"http://www.sjta.com/acairport/","stripped_name":"Atlantic City"},{"id":72,"iata":"ADA","icao":"LTAF","name":"Adana Şakirpaşa Airport","location":"Adana, Turkey","street_number":"","street":"Turhan Cemal Beriker Bulvarı","city":"","county":"Seyhan","state":"Adana","country_iso":"TR","country":"Turkey","postal_code":"1000","phone":"+90 322 435 03 80","latitude":36.985855,"longitude":35.288155,"uct":180,"website":"http://adana.dhmi.gov.tr/havaalanlari/sayfa.aspx?hv=7&mnu=1299","stripped_name":"Adana Şakirpaşa"},{"id":73,"iata":"ADB","icao":"LTBJ","name":"Adnan Menderes Airport","location":"İzmir, Turkey","street_number":"","street":"","city":"","county":"Gaziemir","state":"İzmir","country_iso":"TR","country":"Turkey","postal_code":"35425","phone":"+90 232 455 00 00","latitude":38.293762,"longitude":27.152029,"uct":180,"website":"http://www.adnanmenderesairport.com/","stripped_name":"Adnan Menderes"},{"id":75,"iata":"ADD","icao":"HAAB","name":"Bole International Airport","location":"Addis Ababa, Ethiopia","street_number":"","street":"","city":"Addis Ababa","county":"North Shewa(R4)","state":"Oromia","country_iso":"ET","country":"Ethiopia","postal_code":"","phone":"+251 11 665 6666","latitude":8.980069,"longitude":38.79893,"uct":180,"website":"http://addisairport.com/","stripped_name":"Bole"},{"id":76,"iata":"ADE","icao":"OYAA","name":"Aden International Airport","location":"Aden, Yemen","street_number":"","street":"","city":"Aden","county":"Khormaksar","state":"Adan Governorate","country_iso":"YE","country":"Yemen","postal_code":"","phone":"+967 774 866 418","latitude":12.825377,"longitude":45.03709,"uct":180,"website":"","stripped_name":"Aden"},{"id":77,"iata":"ADF","icao":"LTCP","name":"Adıyaman Airport","location":"Adıyaman, Turkey","street_number":"","street":"","city":"","county":"Adıyaman Merkez","state":"Adıyaman","country_iso":"TR","country":"Turkey","postal_code":"2000","phone":"+90 416 244 22 12","latitude":37.73427,"longitude":38.471996,"uct":180,"website":"http://www.adiyaman.dhmi.gov.tr/","stripped_name":"Adıyaman"},{"id":81,"iata":"ADJ","icao":"OJAM","name":"Amman Civil Airport (Marka International Airport)","location":"Amman, Jordan","street_number":"22","street":"Al Mataar St","city":"Amman","county":"","state":"Amman Governorate","country_iso":"JO","country":"Jordan","postal_code":"11134","phone":"+962 6 567 9467","latitude":31.97485,"longitude":35.983246,"uct":180,"website":"http://www.qaiairport.com/en","stripped_name":"Amman Civil  (Marka  )"},{"id":82,"iata":"ADK","icao":"PADK","name":"Adak Airport","location":"Adak Island, Alaska, United States","street_number":"","street":"","city":"Adak","county":"Aleutians West","state":"Alaska","country_iso":"US","country":"United States","postal_code":"99546","phone":"+1 907-592-4500","latitude":51.881317,"longitude":-176.64822,"uct":-540,"website":"https://adak-ak.us/","stripped_name":"Adak"},{"id":83,"iata":"ADL","icao":"YPAD","name":"Adelaide Airport","location":"Adelaide, South Australia, Australia","street_number":"1","street":"James Schofield Drive","city":"Adelaide Airport","county":"City of West Torrens","state":"South Australia","country_iso":"AU","country":"Australia","postal_code":"5950","phone":"+61 8 8308 9211","latitude":-34.946156,"longitude":138.53323,"uct":630,"website":"http://www.adelaideairport.com.au/?utm_source=Adelaide&utm_medium=james-schofield5950&utm_campaign=google-place-listing","stripped_name":"Adelaide"},{"id":88,"iata":"ADQ","icao":"PADQ","name":"Kodiak Airport","location":"Kodiak, Alaska, United States","street_number":"1427","street":"Airport Way","city":"Kodiak","county":"Kodiak Island","state":"Alaska","country_iso":"US","country":"United States","postal_code":"99615","phone":"+1 907-487-4363","latitude":57.754326,"longitude":-152.51695,"uct":-480,"website":"https://nfdc.faa.gov/nfdcApps/airportLookup/airportDisplay.jsp?airportId=ADQ","stripped_name":"Kodiak"},{"id":92,"iata":"ADU","icao":"OITL","name":"Ardabil Airport","location":"Ardabil, Iran","street_number":"","street":"16","city":"Ardabil","county":"","state":"Ardabil Province","country_iso":"IR","country":"Iran","postal_code":"","phone":"+98 45 3344 7901","latitude":38.324066,"longitude":48.42015,"uct":210,"website":"https://ardabil.airport.ir/","stripped_name":"Ardabil"},{"id":97,"iata":"ADZ","icao":"SKSP","name":"Gustavo Rojas Pinilla International Airport","location":"San Andres Island, Colombia","street_number":"","street":"","city":"","county":"San Andrés","state":"San Andrés","country_iso":"CO","country":"Colombia","postal_code":"880001","phone":"+57 8 5126112","latitude":12.586117,"longitude":-81.702156,"uct":-300,"website":"http://www.aerocivil.gov.co/aeropuertos/Pages/San-Andr%C3%A9s,-Gustavo-Rojas-Pinilla.aspx","stripped_name":"Gustavo Rojas Pinilla"},{"id":99,"iata":"AEB","icao":"ZGBS","name":"Baise Bama Airport","location":"Baise, Guangxi, China","street_number":"42号","street":"Zhongshan 1st Road","city":"Baise Shi","county":"","state":"Guangxi Zhuangzuzizhiqu","country_iso":"CN","country":"China","postal_code":"","phone":"+86 776 323 3666","latitude":23.716698,"longitude":106.97122,"uct":480,"website":"","stripped_name":"Baise Bama"},{"id":101,"iata":"AEG","icao":"WIME","name":"Aek Godang Airport","location":"Padang Sidempuan, Indonesia","street_number":"","street":"","city":"","county":"North Padang Lawas Regency","state":"North Sumatra","country_iso":"ID","country":"Indonesia","postal_code":"22733","phone":"","latitude":1.400112,"longitude":99.42993,"uct":420,"website":"","stripped_name":"Aek Godang"},{"id":102,"iata":"AEH","icao":"FTTC","name":"Abéché Airport","location":"Abéché, Chad","street_number":"","street":"","city":"Abeche","county":"Ouara","state":"Ouaddai","country_iso":"TD","country":"Chad","postal_code":"","phone":"","latitude":13.844667,"longitude":20.849396,"uct":60,"website":"","stripped_name":"Abéché"},{"id":107,"iata":"AEP","icao":"SABE","name":"Jorge Newbery Airpark","location":"Buenos Aires, Argentina","street_number":"s/n","street":"Avenida Costanera Rafael Obligado","city":"","county":"Comuna 14","state":"Buenos Aires","country_iso":"AR","country":"Argentina","postal_code":"C1425","phone":"+54 11 5480-6111","latitude":-34.55803,"longitude":-58.417007,"uct":-180,"website":"http://www.aa2000.com.ar/","stripped_name":"Jorge Newbery Airpark"},{"id":108,"iata":"AER","icao":"URSS","name":"Sochi International Airport","location":"Sochi, Krasnodar Krai, Russia","street_number":"177а","street":"Ulitsa Mira","city":"Adler","county":"City of Sochi","state":"Krasnodarskiy kray","country_iso":"RU","country":"Russia","postal_code":"354355","phone":"+7 800 301-19-91","latitude":43.445015,"longitude":39.943867,"uct":180,"website":"http://basel.aero/sochi/","stripped_name":"Sochi"},{"id":109,"iata":"AES","icao":"ENAL","name":"Ålesund Airport, Vigra","location":"Ålesund, Norway","street_number":"27","street":"Flyplassvegen","city":"","county":"Giske","state":"Møre og Romsdal","country_iso":"NO","country":"Norway","postal_code":"6040","phone":"","latitude":62.558655,"longitude":6.1152782,"uct":120,"website":"https://avinor.no/flyplass/alesund/kontakt-oss/#!kontakt-flyplassen-3666","stripped_name":"Ålesund , Vigra"},{"id":111,"iata":"AEU","icao":"OIBA","name":"Abu Musa Airport","location":"Abu Musa Island, Iran","street_number":"","street":"Persian Gulf Street","city":"Abu Musa","county":"","state":"","country_iso":"IR","country":"Iran","postal_code":"","phone":"+98 76 3562 3386","latitude":25.878654,"longitude":55.025543,"uct":210,"website":"https://airport.ir/","stripped_name":"Abu Musa"},{"id":112,"iata":"AEX","icao":"KAEX","name":"Alexandria International Airport","location":"Alexandria, Louisiana, United States","street_number":"1100","street":"Frank Andrews Boulevard","city":"Alexandria","county":"Rapides Parish","state":"Louisiana","country_iso":"US","country":"United States","postal_code":"71303","phone":"+1 318-449-3504","latitude":31.327412,"longitude":-92.54519,"uct":-300,"website":"http://www.englandairpark.org/aex","stripped_name":"Alexandria"},{"id":113,"iata":"AEY","icao":"BIAR","name":"Akureyri Airport","location":"Akureyri, Iceland","street_number":"","street":"","city":"Akureyri","county":"","state":"","country_iso":"IS","country":"Iceland","postal_code":"","phone":"+354 424 4000","latitude":65.65462,"longitude":-18.075596,"uct":0,"website":"http://www.isavia.is/flugvellir/akureyrarflugvollur/","stripped_name":"Akureyri"},{"id":114,"iata":"AFA","icao":"SAMR","name":"San Rafael Airport","location":"San Rafael, Mendoza, Argentina","street_number":"400","street":"Smith Ranch Road","city":"San Rafael","county":"Marin County","state":"California","country_iso":"US","country":"United States","postal_code":"94903","phone":"+1 415-472-7700","latitude":38.017185,"longitude":-122.521545,"uct":-420,"website":"","stripped_name":"San Rafael"},{"id":119,"iata":"AFL","icao":"SBAT","name":"Alta Floresta Airport","location":"Alta Floresta, Mato Grosso, Brazil","street_number":"","street":"","city":"","county":"Alta Floresta","state":"State of Mato Grosso","country_iso":"BR","country":"Brazil","postal_code":"78580-000","phone":"+55 66 3521-2226","latitude":-9.872357,"longitude":-56.105198,"uct":-240,"website":"","stripped_name":"Alta Floresta"},{"id":127,"iata":"AFZ","icao":"OIMS","name":"Sabzevar Airport","location":"Sabzevar, Iran","street_number":"","street":"","city":"Sabzevar","county":"","state":"Razavi Khorasan Province","country_iso":"IR","country":"Iran","postal_code":"","phone":"+98 51 4444 9100","latitude":36.171246,"longitude":57.603333,"uct":210,"website":"https://sabzevar.airport.ir/","stripped_name":"Sabzevar"},{"id":128,"iata":"AGA","icao":"GMAD","name":"Agadir–Al Massira Airport","location":"Agadir, Morocco","street_number":"","street":"","city":"Agadir Al Massira","county":"إنزكان-أيت ملول","state":"جهة سوس ماسة","country_iso":"MA","country":"Morocco","postal_code":"80000","phone":"+212 5288-39152","latitude":30.327028,"longitude":-9.4128895,"uct":60,"website":"http://www.agadir-airport.com/","stripped_name":"Agadir–Al Massira"},{"id":133,"iata":"AGF","icao":"LFBA","name":"Agen La Garenne Airport","location":"Agen, Aquitaine, France","street_number":"","street":"","city":"Estillac","county":"Lot-et-Garonne","state":"Nouvelle-Aquitaine","country_iso":"FR","country":"France","postal_code":"47310","phone":"+33 5 53 77 00 88","latitude":44.17623,"longitude":0.5944807,"uct":120,"website":"http://www.aeroport-agen.com/","stripped_name":"Agen La Garenne"},{"id":135,"iata":"AGH","icao":"ESTA","name":"Ängelholm–Helsingborg Airport (former ICAO: ESDB)","location":"Ängelholm, Sweden","street_number":"445","street":"Margretetorpsvägen","city":"","county":"","state":"Skåne län","country_iso":"SE","country":"Sweden","postal_code":"262 91","phone":"+46 431 48 45 00","latitude":56.2874,"longitude":12.86769,"uct":120,"website":"http://www.angelholmhelsingborgairport.se/","stripped_name":"Ängelholm–Helsingborg  (former ICAO: ESDB)"},{"id":142,"iata":"AGP","icao":"LEMG","name":"Málaga Airport","location":"Málaga, Andalusia, Spain","street_number":"s/n","street":"Avenida del Comandante García Morato","city":"Málaga","county":"Málaga","state":"Andalucía","country_iso":"ES","country":"Spain","postal_code":"29004","phone":"+34 913 21 10 00","latitude":36.679115,"longitude":-4.494509,"uct":120,"website":"http://www.aena.es/es/aeropuerto-malaga/index.html","stripped_name":"Málaga"},{"id":144,"iata":"AGR","icao":"VIAG","name":"Agra Airport","location":"Agra, Uttar Pradesh, India","street_number":"","street":"","city":"Agra","county":"Agra","state":"Uttar Pradesh","country_iso":"IN","country":"India","postal_code":"282001","phone":"+91 562 240 0844","latitude":27.152697,"longitude":77.961754,"uct":330,"website":"http://www.aai.aero/","stripped_name":"Agra"},{"id":145,"iata":"AGS","icao":"KAGS","name":"Augusta Regional Airport at Bush Field","location":"Augusta, Georgia, United States","street_number":"1501","street":"Aviation Way","city":"Augusta","county":"Richmond County","state":"Georgia","country_iso":"US","country":"United States","postal_code":"30906","phone":"+1 706-798-3236","latitude":33.368855,"longitude":-81.96577,"uct":-240,"website":"http://www.flyags.com/","stripped_name":"Augusta Regional  at Bush Field"},{"id":146,"iata":"AGT","icao":"SGES","name":"Guaraní International Airport","location":"Ciudad del Este, Paraguay","street_number":"","street":"Ruta Internacional 7","city":"Minga Guazú","county":"Minga Guazú","state":"Departamento de Alto Paraná","country_iso":"PY","country":"Paraguay","postal_code":"","phone":"","latitude":-25.4555,"longitude":-54.843594,"uct":-180,"website":"http://www.dinac.gov.py/","stripped_name":"Guaraní"},{"id":147,"iata":"AGU","icao":"MMAS","name":"Lic. Jesús Terán Peredo International Airport","location":"Aguascalientes, Aguascalientes, Mexico","street_number":"","street":"","city":"Aguascalientes","county":"","state":"Aguascalientes","country_iso":"MX","country":"Mexico","postal_code":"20340","phone":"+52 449 918 2806","latitude":21.701298,"longitude":-102.31623,"uct":-300,"website":"https://www.aeropuertosgap.com.mx/es/aguascalientes.html","stripped_name":"Lic. Jesús Terán Peredo"},{"id":148,"iata":"AGV","icao":"SVAC","name":"Oswaldo Guevara Mujica Airport","location":"Acarigua, Venezuela","street_number":"","street":"","city":"","county":"","state":"","country_iso":"","country":"","postal_code":"","phone":"","latitude":0,"longitude":0,"uct":0,"website":"","stripped_name":"Oswaldo Guevara Mujica"},{"id":150,"iata":"AGX","icao":"VOAT","name":"Agatti Aerodrome","location":"Agatti Island, Lakshadweep, India","street_number":"","street":"","city":"Agatti","county":"Lakshadweep","state":"Lakshadweep","country_iso":"IN","country":"India","postal_code":"682553","phone":"+91 4894 242 615","latitude":10.828119,"longitude":72.179306,"uct":330,"website":"https://www.aai.aero/","stripped_name":"Agatti Aerodrome"},{"id":152,"iata":"AHB","icao":"OEAB","name":"Abha Regional Airport","location":"Abha, Saudi Arabia","street_number":"","street":"","city":"Abha","county":"","state":"Aseer Province","country_iso":"SA","country":"Saudi Arabia","postal_code":"","phone":"+966 9200 11233","latitude":18.234816,"longitude":42.657734,"uct":180,"website":"https://gaca.gov.sa/web/ar-sa/airport/abha-airport-abha","stripped_name":"Abha Regional"},{"id":155,"iata":"AHE","icao":"NTHE","name":"Ahe Airport","location":"Ahe, Tuamotus, French Polynesia","street_number":"","street":"","city":"","county":"Tuamotus Islands","state":"","country_iso":"PF","country":"French Polynesia","postal_code":"","phone":"","latitude":-14.42755,"longitude":-146.25626,"uct":-600,"website":"","stripped_name":"Ahe"},{"id":162,"iata":"AHN","icao":"KAHN","name":"Athens Ben Epps Airport","location":"Athens, Georgia, United States","street_number":"1010","street":"Ben Epps Drive","city":"Athens","county":"Clarke County","state":"Georgia","country_iso":"US","country":"United States","postal_code":"30605","phone":"+1 706-613-3420","latitude":33.949215,"longitude":-83.32748,"uct":-240,"website":"http://www.athensairport.net/","stripped_name":"Athens Ben Epps"},{"id":163,"iata":"AHO","icao":"LIEA","name":"Alghero-Fertilia Airport","location":"Alghero, Sardinia, Italy","street_number":"","street":"Regione Nuraghe Biancu","city":"Alghero","county":"Provincia di Sassari","state":"Sardegna","country_iso":"IT","country":"Italy","postal_code":"7041","phone":"+39 079 935282","latitude":40.63358,"longitude":8.291732,"uct":120,"website":"http://www.aeroportodialghero.it/","stripped_name":"Alghero-Fertilia"},{"id":165,"iata":"AHU","icao":"GMTA","name":"Cherif Al Idrissi Airport","location":"Al Hoceima, Morocco","street_number":"","street":"","city":"","county":"","state":"","country_iso":"","country":"","postal_code":"","phone":"","latitude":0,"longitude":0,"uct":0,"website":"","stripped_name":"Cherif Al Idrissi"},{"id":190,"iata":"AJA","icao":"LFKJ","name":"Ajaccio Napoleon Bonaparte Airport","location":"Ajaccio, Corsica, France","street_number":"","street":"Route de Campo Dell Oro","city":"Ajaccio","county":"Corse-du-Sud","state":"Corse","country_iso":"FR","country":"France","postal_code":"20090","phone":"+33 4 95 23 56 56","latitude":41.920216,"longitude":8.794628,"uct":120,"website":"http://www.2a.cci.fr/Aeroport-Napoleon-Bonaparte-Ajaccio.html","stripped_name":"Ajaccio Napoleon Bonaparte"},{"id":191,"iata":"AJF","icao":"OESK","name":"Al-Jawf Domestic Airport","location":"Sakakah, Al Jawf, Saudi Arabia","street_number":"","street":"","city":"Sakaka","county":"","state":"Al Jowf","country_iso":"SA","country":"Saudi Arabia","postal_code":"","phone":"+966 14 624 2766","latitude":29.788502,"longitude":40.10202,"uct":180,"website":"https://gaca.gov.sa/","stripped_name":"Al-Jawf Domestic"},{"id":192,"iata":"AJI","icao":"LTCO","name":"Ağrı Airport","location":"Ağrı, Turkey","street_number":"","street":"","city":"","county":"Ağrı Merkez","state":"Ağrı","country_iso":"TR","country":"Turkey","postal_code":"4000","phone":"+90 472 216 04 00","latitude":39.65457,"longitude":43.020874,"uct":180,"website":"http://www.agri.dhmi.gov.tr/","stripped_name":"Ağrı"},{"id":195,"iata":"AJL","icao":"VELP","name":"Lengpui Airport","location":"Aizawl, Mizoram, India","street_number":"","street":"","city":"Aizawl","county":"Mamit","state":"Mizoram","country_iso":"IN","country":"India","postal_code":"796421","phone":"+91 389 257 3233","latitude":23.838848,"longitude":92.62417,"uct":330,"website":"","stripped_name":"Lengpui"},{"id":196,"iata":"AJN","icao":"FMCV","name":"Ouani Airport","location":"Anjouan, Comoros","street_number":"","street":"","city":"Ouani","county":"Quani","state":"Nzwani","country_iso":"KM","country":"Comoros","postal_code":"","phone":"","latitude":-12.133332,"longitude":44.429672,"uct":180,"website":"","stripped_name":"Ouani"},{"id":197,"iata":"AJR","icao":"ESNX","name":"Arvidsjaur Airport","location":"Arvidsjaur, Sweden","street_number":"","street":"","city":"","county":"","state":"Norrbottens län","country_iso":"SE","country":"Sweden","postal_code":"933 91","phone":"+46 960 173 80","latitude":65.59216,"longitude":19.264204,"uct":120,"website":"http://arvidsjaurairport.se/","stripped_name":"Arvidsjaur"},{"id":199,"iata":"AJU","icao":"SBAR","name":"Santa Maria Airport","location":"Aracaju, Sergipe, Brazil","street_number":"3249","street":"Terminal Drive","city":"Santa Maria","county":"Santa Barbara County","state":"California","country_iso":"US","country":"United States","postal_code":"93455","phone":"+1 805-922-1726","latitude":34.89914,"longitude":-120.44778,"uct":-420,"website":"http://www.santamariaairport.com/","stripped_name":"Santa Maria"},{"id":200,"iata":"AJY","icao":"DRZA","name":"Mano Dayak International Airport","location":"Agadez, Niger","street_number":"","street":"","city":"Agadez","county":"Tchirozerine","state":"Agadez Region","country_iso":"NE","country":"Niger","postal_code":"","phone":"+227 91 33 10 16","latitude":16.964167,"longitude":7.993056,"uct":60,"website":"","stripped_name":"Mano Dayak"},{"id":206,"iata":"AKF","icao":"HLKF","name":"Kufra Airport","location":"Kufra, Libya","street_number":"","street":"","city":"Al-Jawf","county":"","state":"Kufra District","country_iso":"LY","country":"Libya","postal_code":"","phone":"","latitude":24.176666,"longitude":23.313334,"uct":120,"website":"","stripped_name":"Kufra"},{"id":210,"iata":"AKJ","icao":"RJEC","name":"Asahikawa Airport","location":"Asahikawa, Hokkaido, Japan","street_number":"","street":"","city":"Higashikagura","county":"Kamikawa District","state":"Hokkaidō","country_iso":"JP","country":"Japan","postal_code":"071-1562","phone":"+81 166-83-3939","latitude":43.671078,"longitude":142.4539,"uct":540,"website":"http://www.aapb.co.jp/","stripped_name":"Asahikawa"},{"id":212,"iata":"AKL","icao":"NZAA","name":"Auckland Airport","location":"Auckland, New Zealand","street_number":"","street":"Ray Emery Drive","city":"Auckland","county":"","state":"Auckland","country_iso":"NZ","country":"New Zealand","postal_code":"2022","phone":"+64 9-275 0789","latitude":-37.008247,"longitude":174.78503,"uct":780,"website":"http://www.aucklandairport.co.nz/","stripped_name":"Auckland"},{"id":214,"iata":"AKN","icao":"PAKN","name":"King Salmon Airport","location":"King Salmon, Alaska, United States","street_number":"1","street":"King Salmon Airport Road","city":"King Salmon","county":"Bristol Bay","state":"Alaska","country_iso":"US","country":"United States","postal_code":"99613","phone":"+1 907-246-3325","latitude":58.676666,"longitude":-156.64917,"uct":-480,"website":"https://nfdc.faa.gov/nfdcApps/airportLookup/airportDisplay.jsp?airportId=AKN","stripped_name":"King Salmon"},{"id":218,"iata":"AKR","icao":"DNAK","name":"Akure Airport","location":"Akure, Nigeria","street_number":"","street":"","city":"","county":"Akure North","state":"Ondo","country_iso":"NG","country":"Nigeria","postal_code":"","phone":"+234 816 263 3622","latitude":7.250971,"longitude":5.2996736,"uct":60,"website":"","stripped_name":"Akure"},{"id":221,"iata":"AKU","icao":"ZWAK","name":"Aksu Airport","location":"Aksu, Xinjiang, China","street_number":"","street":"","city":"Aksu","county":"","state":"","country_iso":"CN","country":"China","postal_code":"","phone":"","latitude":41.259983,"longitude":80.29262,"uct":480,"website":"","stripped_name":"Aksu"},{"id":222,"iata":"AKV","icao":"CYKO","name":"Akulivik Airport","location":"Akulivik, Quebec, Canada","street_number":"","street":"","city":"Akulivik","county":"Nord-du-Québec","state":"Quebec","country_iso":"CA","country":"Canada","postal_code":"J0M 1V0","phone":"+1 819-496-2213","latitude":60.818607,"longitude":-78.14861,"uct":-240,"website":"http://www.airinuit.com/","stripped_name":"Akulivik"},{"id":224,"iata":"AKX","icao":"UATT","name":"Aktobe Airport","location":"Aktobe, Kazakhstan","street_number":"","street":"","city":"Aktobe","county":"","state":"Aktobe Province","country_iso":"KZ","country":"Kazakhstan","postal_code":"","phone":"+7 713 222 9550","latitude":50.248756,"longitude":57.210796,"uct":300,"website":"","stripped_name":"Aktobe"},{"id":225,"iata":"AKY","icao":"VYSW","name":"Sittwe Airport","location":"Sittwe, Myanmar","street_number":"","street":"","city":"Sittwe","county":"Sittwe","state":"Rakhine","country_iso":"MM","country":"Myanmar (Burma)","postal_code":"","phone":"+95 43 21 197","latitude":20.134836,"longitude":92.87314,"uct":390,"website":"","stripped_name":"Sittwe"},{"id":226,"iata":"ALA","icao":"UAAA","name":"Almaty International Airport","location":"Almaty, Kazakhstan","street_number":"2","street":"Mailin Street","city":"Almaty","county":"","state":"Almaty Province","country_iso":"KZ","country":"Kazakhstan","postal_code":"50039","phone":"+7 727 270 3333","latitude":43.349926,"longitude":77.02529,"uct":360,"website":"http://www.alaport.com/","stripped_name":"Almaty"},{"id":227,"iata":"ALB","icao":"KALB","name":"Albany International Airport","location":"Albany, New York, United States","street_number":"","street":"Albany Shaker Road","city":"","county":"Albany County","state":"New York","country_iso":"US","country":"United States","postal_code":"","phone":"+1 518-242-2200","latitude":42.74871,"longitude":-73.8055,"uct":-240,"website":"http://www.albanyairport.com/","stripped_name":"Albany"},{"id":228,"iata":"ALC","icao":"LEAL","name":"Alicante–Elche Airport","location":"Alicante, Valencia, Spain","street_number":"","street":"","city":"L'Altet","county":"Alacant","state":"Comunitat Valenciana","country_iso":"ES","country":"Spain","postal_code":"3195","phone":"+34 913 21 10 00","latitude":38.285484,"longitude":-0.560056,"uct":120,"website":"http://www.aena.es/es/aeropuerto-alicante/index.html","stripped_name":"Alicante–Elche"},{"id":231,"iata":"ALF","icao":"ENAT","name":"Alta Airport","location":"Alta, Norway","street_number":"32","street":"Altagårdskogen","city":"","county":"Alta","state":"Finnmark","country_iso":"NO","country":"Norway","postal_code":"9515","phone":"+47 67 03 49 00","latitude":69.97791,"longitude":23.346842,"uct":120,"website":"https://avinor.no/en/airport/alta-airport/","stripped_name":"Alta"},{"id":232,"iata":"ALG","icao":"DAAG","name":"Houari Boumediene Airport","location":"Algiers, Algeria","street_number":"","street":"","city":"Dar El Beida, Algiers","county":"","state":"Algiers Province","country_iso":"DZ","country":"Algeria","postal_code":"","phone":"+213 21 50 91 91","latitude":36.697525,"longitude":3.2067833,"uct":60,"website":"http://www.egsa-alger.dz","stripped_name":"Houari Boumediene"},{"id":233,"iata":"ALH","icao":"YABA","name":"Albany Airport","location":"Albany, Western Australia, Australia","street_number":"","street":"Albany Shaker Road","city":"","county":"Albany County","state":"New York","country_iso":"US","country":"United States","postal_code":"","phone":"+1 518-242-2200","latitude":42.74871,"longitude":-73.8055,"uct":-240,"website":"http://www.albanyairport.com/","stripped_name":"Albany"},{"id":240,"iata":"ALO","icao":"KALO","name":"Waterloo Regional Airport","location":"Waterloo, Iowa, United States","street_number":"2790","street":"Livingston Lane","city":"Waterloo","county":"Black Hawk County","state":"Iowa","country_iso":"US","country":"United States","postal_code":"50703","phone":"+1 319-291-4483","latitude":42.555225,"longitude":-92.397964,"uct":-300,"website":"http://www.flyalo.com/","stripped_name":"Waterloo Regional"},{"id":241,"iata":"ALP","icao":"OSAP","name":"Aleppo International Airport","location":"Aleppo, Syria","street_number":"","street":"طريق المطار","city":"Aleppo","county":"Mount Simeon","state":"Aleppo Governorate","country_iso":"SY","country":"Syria","postal_code":"","phone":"","latitude":36.18458,"longitude":37.22751,"uct":180,"website":"","stripped_name":"Aleppo"},{"id":244,"iata":"ALS","icao":"KALS","name":"San Luis Valley Regional Airport","location":"Alamosa, Colorado, United States","street_number":"2490","street":"State Avenue","city":"Alamosa","county":"Alamosa County","state":"Colorado","country_iso":"US","country":"United States","postal_code":"81101","phone":"+1 719-589-1138","latitude":37.443848,"longitude":-105.86451,"uct":-360,"website":"http://www.sanluisvalleyairport.org/","stripped_name":"San Luis Valley Regional"},{"id":247,"iata":"ALW","icao":"KALW","name":"Walla Walla Regional Airport","location":"Walla Walla, Washington, United States","street_number":"45","street":"Terminal Loop","city":"Walla Walla","county":"Walla Walla County","state":"Washington","country_iso":"US","country":"United States","postal_code":"99362","phone":"+1 509-525-3100","latitude":46.087276,"longitude":-118.28449,"uct":-420,"website":"http://www.wallawallaairport.com/","stripped_name":"Walla Walla Regional"},{"id":251,"iata":"AMA","icao":"KAMA","name":"Rick Husband Amarillo International Airport","location":"Amarillo, Texas, United States","street_number":"10801","street":"Airport Boulevard","city":"Amarillo","county":"Potter County","state":"Texas","country_iso":"US","country":"United States","postal_code":"79111","phone":"+1 806-335-1671","latitude":35.220325,"longitude":-101.70745,"uct":-300,"website":"http://fly-ama.com/","stripped_name":"Rick Husband Amarillo"},{"id":254,"iata":"AMD","icao":"VAAH","name":"Sardar Vallabhbhai Patel International Airport","location":"Ahmedabad, Gujarat, India","street_number":"","street":"","city":"Ahmedabad","county":"Ahmedabad","state":"Gujarat","country_iso":"IN","country":"India","postal_code":"380003","phone":"+91 79 2286 9211","latitude":23.073425,"longitude":72.62657,"uct":330,"website":"https://www.aai.aero/en/airports/ahmedabad","stripped_name":"Sardar Vallabhbhai Patel"},{"id":258,"iata":"AMH","icao":"HAAM","name":"Arba Minch Airport","location":"Arba Minch, Ethiopia","street_number":"","street":"9","city":"Arba Minch","county":"Gamo Gofa","state":"Southern Nations, Nationalities, and People's Region","country_iso":"ET","country":"Ethiopia","postal_code":"","phone":"+251 46 881 1595","latitude":6.0404453,"longitude":37.58893,"uct":180,"website":"","stripped_name":"Arba Minch"},{"id":263,"iata":"AMM","icao":"OJAI","name":"Queen Alia International Airport","location":"Amman, Jordan","street_number":"","street":"","city":"Amman","county":"","state":"Amman Governorate","country_iso":"JO","country":"Jordan","postal_code":"","phone":"+962 6 500 2777","latitude":31.723248,"longitude":35.99507,"uct":180,"website":"http://www.qaiairport.com/","stripped_name":"Queen Alia"},{"id":267,"iata":"AMQ","icao":"WAPP","name":"Pattimura Airport","location":"Ambon, Indonesia","street_number":"","street":"","city":"","county":"Kota Ambon","state":"Maluku","country_iso":"ID","country":"Indonesia","postal_code":"97236","phone":"+62 911 323771","latitude":-3.7057908,"longitude":128.08888,"uct":540,"website":"https://pattimura-airport.co.id/id","stripped_name":"Pattimura"},{"id":268,"iata":"AMS","icao":"EHAM","name":"Amsterdam Airport Schiphol","location":"Amsterdam, Netherlands","street_number":"202","street":"Evert van de Beekstraat","city":"Schiphol","county":"Haarlemmermeer","state":"Noord-Holland","country_iso":"NL","country":"Netherlands","postal_code":"1118 CP","phone":"+31 20 794 0800","latitude":52.31054,"longitude":4.7682743,"uct":120,"website":"http://www.schiphol.nl/","stripped_name":"Amsterdam  Schiphol"},{"id":271,"iata":"AMV","icao":"ULDD","name":"Amderma Airport","location":"Amderma, Nenets Autonomous Okrug, Russia","street_number":"","street":"","city":"Амдерма","county":"Заполярный район","state":"Ненецкий автономный округ","country_iso":"RU","country":"Russia","postal_code":"166744","phone":"+7 818 572-37-11","latitude":69.76235,"longitude":61.574192,"uct":180,"website":"http://amderma-air.ru/","stripped_name":"Amderma"},{"id":277,"iata":"ANC","icao":"PANC","name":"Ted Stevens Anchorage International Airport","location":"Anchorage, Alaska, United States","street_number":"5000","street":"West International Airport Road","city":"Anchorage","county":"Anchorage","state":"Alaska","country_iso":"US","country":"United States","postal_code":"99502","phone":"+1 907-266-2526","latitude":61.175888,"longitude":-149.99008,"uct":-480,"website":"http://dot.state.ak.us/anc/","stripped_name":"Ted Stevens Anchorage"},{"id":279,"iata":"ANE","icao":"LFJR","name":"Angers – Loire Airport","location":"Angers, Pays de la Loire, France","street_number":"","street":"","city":"Marcé","county":"Maine-et-Loire","state":"Pays de la Loire","country_iso":"FR","country":"France","postal_code":"49140","phone":"+33 2 41 33 50 20","latitude":47.56036,"longitude":-0.312112,"uct":120,"website":"http://www.angersloireaeroport.fr/","stripped_name":"Angers – Loire"},{"id":280,"iata":"ANF","icao":"SCFA","name":"Cerro Moreno International Airport","location":"Antofagasta, Chile","street_number":"","street":"","city":"Antofagasta","county":"Antofagasta","state":"Región de Antofagasta","country_iso":"CL","country":"Chile","postal_code":"","phone":"+56 55 225 4998","latitude":-23.448818,"longitude":-70.440865,"uct":-180,"website":"http://www.aeropuertoantofagasta.cl/","stripped_name":"Cerro Moreno"},{"id":282,"iata":"ANI","icao":"PANI","name":"Aniak Airport","location":"Aniak, Alaska, United States","street_number":"","street":"","city":"Aniak","county":"Bethel","state":"Alaska","country_iso":"US","country":"United States","postal_code":"99557","phone":"+1 907-266-0151","latitude":61.5808,"longitude":-159.54259,"uct":-480,"website":"https://nfdc.faa.gov/nfdcApps/services/ajv5/airportDisplay.jsp?airportId=ani","stripped_name":"Aniak"},{"id":286,"iata":"ANM","icao":"FMNH","name":"Antsirabato Airport","location":"Antalaha, Madagascar","street_number":"","street":"","city":"Antalaha","county":"Antalaha","state":"Antsiranana Province","country_iso":"MG","country":"Madagascar","postal_code":"","phone":"+261 33 80 776 98","latitude":-14.998869,"longitude":50.320316,"uct":180,"website":"","stripped_name":"Antsirabato"},{"id":287,"iata":"ANN","icao":"PANT","name":"Annette Island Airport","location":"Annette Island, Alaska, United States","street_number":"","street":"","city":"Metlakatla","county":"Prince of Wales-Hyder Census Area","state":"Alaska","country_iso":"US","country":"United States","postal_code":"99926","phone":"+1 907-886-4441","latitude":55.036667,"longitude":-131.57222,"uct":-480,"website":"","stripped_name":"Annette Island"},{"id":291,"iata":"ANR","icao":"EBAW","name":"Antwerp International Airport","location":"Antwerp, Belgium","street_number":"","street":"Luchthavenlei","city":"Antwerpen","county":"Antwerpen","state":"Vlaanderen","country_iso":"BE","country":"Belgium","postal_code":"2100","phone":"+32 3 285 65 00","latitude":51.188747,"longitude":4.4608736,"uct":120,"website":"http://www.antwerp-airport.be/","stripped_name":"Antwerp"},{"id":293,"iata":"ANU","icao":"TAPA","name":"V. C. Bird International Airport","location":"Antigua, Antigua and Barbuda","street_number":"","street":"Pavilion Drive","city":"Osbourn","county":"","state":"","country_iso":"AG","country":"Antigua and Barbuda","postal_code":"","phone":"+1 268-484-2300","latitude":17.14179,"longitude":-61.790565,"uct":-240,"website":"","stripped_name":"V. C. Bird"},{"id":294,"iata":"ANV","icao":"PANV","name":"Anvik Airport","location":"Anvik, Alaska, United States","street_number":"","street":"","city":"Anvik","county":"Yukon-Koyukuk","state":"Alaska","country_iso":"US","country":"United States","postal_code":"99558","phone":"+1 907-451-2200","latitude":62.64841,"longitude":-160.19019,"uct":-480,"website":"http://www.faa.gov/airports/airport_safety/airportdata_5010/menu/contacts.cfm?Region=&District=&State=AK&County=&City=&Use=&Certification=","stripped_name":"Anvik"},{"id":296,"iata":"ANX","icao":"ENAN","name":"Andøya Airport, Andenes","location":"Andenes, Norway","street_number":"","street":"","city":"Andenes","county":"Andoy","state":"Nordland","country_iso":"NO","country":"Norway","postal_code":"8480","phone":"+47 67 03 40 50","latitude":69.31068,"longitude":16.123798,"uct":120,"website":"https://avinor.no/flyplass/andoya/","stripped_name":"Andøya , Andenes"},{"id":303,"iata":"AOE","icao":"LTBY","name":"Anadolu Airport","location":"Eskişehir, Turkey","street_number":"","street":"","city":"","county":"Tepebaşı","state":"Eskişehir","country_iso":"TR","country":"Turkey","postal_code":"26555","phone":"+90 222 322 20 59","latitude":39.812946,"longitude":30.528275,"uct":180,"website":"http://www.dhmi.gov.tr/fotogaleri.aspx?hv=52","stripped_name":"Anadolu"},{"id":304,"iata":"AOG","icao":"ZYAS","name":"Anshan Teng'ao Airport","location":"Anshan, Liaoning, China","street_number":"","street":"","city":"Anshan","county":"","state":"Liaoning","country_iso":"CN","country":"China","postal_code":"","phone":"","latitude":41.113064,"longitude":122.86659,"uct":480,"website":"","stripped_name":"Anshan Teng'ao"},{"id":306,"iata":"AOI","icao":"LIPY","name":"Ancona Falconara Airport","location":"Ancona, Marche, Italy","street_number":"","street":"Via del Consorzio","city":"Falconara Marittima","county":"Provincia di Ancona","state":"Marche","country_iso":"IT","country":"Italy","postal_code":"60015","phone":"+39 071 28271","latitude":43.610527,"longitude":13.355831,"uct":120,"website":"http://www.marcheairport.com/","stripped_name":"Ancona Falconara"},{"id":307,"iata":"AOJ","icao":"RJSA","name":"Aomori Airport","location":"Aomori, Honshu, Japan","street_number":"","street":"","city":"Aomori-shi","county":"","state":"Aomori-ken","country_iso":"JP","country":"Japan","postal_code":"030-0155","phone":"+81 17-739-2000","latitude":40.73828,"longitude":140.6891,"uct":540,"website":"http://www.aomori-airport.co.jp/","stripped_name":"Aomori"},{"id":308,"iata":"AOK","icao":"LGKP","name":"Karpathos Island National Airport","location":"Karpathos, Greece","street_number":"","street":"","city":"Karpathos","county":"","state":"","country_iso":"GR","country":"Greece","postal_code":"857 00","phone":"","latitude":35.420433,"longitude":27.146923,"uct":180,"website":"http://www.greek-airports.gr/karpat.htm","stripped_name":"Karpathos Island National"},{"id":312,"iata":"AOO","icao":"KAOO","name":"Altoona–Blair County Airport","location":"Altoona, Pennsylvania, United States","street_number":"310","street":"Airport Entrance Road","city":"Martinsburg","county":"Blair County","state":"Pennsylvania","country_iso":"US","country":"United States","postal_code":"16662","phone":"+1 814-793-2027","latitude":40.295128,"longitude":-78.323906,"uct":-240,"website":"http://www.flyaltoona.com/","stripped_name":"Altoona–Blair County"},{"id":314,"iata":"AOR","icao":"WMKA","name":"Sultan Abdul Halim Airport","location":"Alor Setar, Kedah, Malaysia","street_number":"","street":"","city":"Alor Setar","county":"","state":"Kedah","country_iso":"MY","country":"Malaysia","postal_code":"6200","phone":"+60 4-714 6876","latitude":6.1919985,"longitude":100.39505,"uct":480,"website":"http://www.malaysiaairports.com.my/?m=business&c=business_about&id=8","stripped_name":"Sultan Abdul Halim"},{"id":326,"iata":"APL","icao":"FQNP","name":"Nampula Airport","location":"Nampula, Mozambique","street_number":"","street":"Avenida do trabalho A, 418","city":"Nampula","county":"Cidade de Nampula","state":"Nampula","country_iso":"MZ","country":"Mozambique","postal_code":"","phone":"","latitude":-15.1075325,"longitude":39.28382,"uct":120,"website":"http://www.aeroportos.co.mz/","stripped_name":"Nampula"},{"id":327,"iata":"APN","icao":"KAPN","name":"Alpena County Regional Airport","location":"Alpena, Michigan, United States","street_number":"1617","street":"Airport Road","city":"Alpena","county":"Alpena County","state":"Michigan","country_iso":"US","country":"United States","postal_code":"49707","phone":"+1 989-354-2907","latitude":45.072197,"longitude":-83.56359,"uct":-240,"website":"http://alpenaairport.com/","stripped_name":"Alpena County Regional"},{"id":328,"iata":"APO","icao":"SKLC","name":"Antonio Roldán Betancourt Airport","location":"Apartadó, Colombia","street_number":"","street":"","city":"","county":"Carepa","state":"Antioquia","country_iso":"CO","country":"Colombia","postal_code":"57858","phone":"+57 4 8296433","latitude":7.816072,"longitude":-76.7185,"uct":-300,"website":"http://www.airplan.aero/","stripped_name":"Antonio Roldán Betancourt"},{"id":336,"iata":"APW","icao":"NSFA","name":"Faleolo International Airport","location":"Apia, Upolu Island, Samoa","street_number":"","street":"Main West Coast Road","city":"Faleolo","county":"","state":"A'ana","country_iso":"WS","country":"Samoa","postal_code":"","phone":"+685 23201","latitude":-13.83045,"longitude":-172.0081,"uct":840,"website":"http://apia.airport-authority.com/","stripped_name":"Faleolo"},{"id":340,"iata":"AQA","icao":"SBAQ","name":"Araraquara Airport","location":"Araraquara, São Paulo, Brazil","street_number":"","street":"","city":"","county":"Gavião Peixoto","state":"State of São Paulo","country_iso":"BR","country":"Brazil","postal_code":"14813-000","phone":"+55 16 3338-9000","latitude":-21.760841,"longitude":-48.398132,"uct":-180,"website":"http://www.embraer.com.br/","stripped_name":"Araraquara"},{"id":342,"iata":"AQG","icao":"ZSAQ","name":"Anqing Tianzhushan Airport","location":"Anqing, Anhui, China","street_number":"","street":"","city":"Anqing","county":"","state":"","country_iso":"CN","country":"China","postal_code":"246000","phone":"+86 556 586 1114","latitude":30.5831,"longitude":117.05164,"uct":480,"website":"","stripped_name":"Anqing Tianzhushan"},{"id":343,"iata":"AQI","icao":"OEPA","name":"Al Qaisumah/Hafr Al Batin Airport","location":"Qaisumah / Hafar Al-Batin, Saudi Arabia","street_number":"","street":"","city":"Al Qaisumah","county":"","state":"Eastern Province","country_iso":"SA","country":"Saudi Arabia","postal_code":"39612","phone":"+966 13 724 1609","latitude":28.334408,"longitude":46.121315,"uct":180,"website":"https://gaca.gov.sa/web/en-gb/airport/al-qaisumah-airport","stripped_name":"Al Qaisumah/Hafr Al Batin"},{"id":344,"iata":"AQJ","icao":"OJAQ","name":"King Hussein International Airport","location":"Aqaba, Jordan","street_number":"","street":"","city":"Aqaba","county":"Aqaba Qasabah District","state":"Aqaba Governorate","country_iso":"JO","country":"Jordan","postal_code":"","phone":"+962 3 201 2111","latitude":29.613297,"longitude":35.01994,"uct":180,"website":"","stripped_name":"King Hussein"},{"id":346,"iata":"AQP","icao":"SPQU","name":"Rodríguez Ballón International Airport","location":"Arequipa, Peru","street_number":"","street":"Aeropuerto","city":"Cerro Colorado","county":"Arequipa","state":"Arequipa","country_iso":"PE","country":"Peru","postal_code":"","phone":"+51 54 344834","latitude":-16.344688,"longitude":-71.56765,"uct":-300,"website":"http://www.aap.com.pe/aeropuerto-internacional-rodriguez-ballon","stripped_name":"Rodríguez Ballón"},{"id":351,"iata":"ARC","icao":"PARC","name":"Arctic Village Airport","location":"Arctic Village, Alaska, United States","street_number":"","street":"","city":"Arctic Village","county":"Yukon-Koyukuk","state":"Alaska","country_iso":"US","country":"United States","postal_code":"99722","phone":"+1 907-849-8165","latitude":68.11444,"longitude":-145.57916,"uct":-480,"website":"https://nfdc.faa.gov/nfdcApps/airportLookup/airportDisplay.jsp?category=nasr&airportId=ARC","stripped_name":"Arctic Village"},{"id":356,"iata":"ARH","icao":"ULAA","name":"Talagi Airport","location":"Arkhangelsk, Arkhangelsk Oblast, Russia","street_number":"10","street":"Аэропорт","city":"Arkhangelsk","county":"","state":"Arkhangelskaya oblast'","country_iso":"RU","country":"Russia","postal_code":"163053","phone":"+7 818 263-16-00","latitude":64.596115,"longitude":40.714546,"uct":180,"website":"http://arhaero.ru/","stripped_name":"Talagi"},{"id":357,"iata":"ARI","icao":"SCAR","name":"Chacalluta International Airport","location":"Arica, Chile","street_number":"3150","street":"Ruta 12","city":"","county":"Arica","state":"Región de Arica y Parinacota","country_iso":"CL","country":"Chile","postal_code":"","phone":"+56 58 221 2773","latitude":-18.349466,"longitude":-70.33463,"uct":-180,"website":"http://www.chacalluta.cl/","stripped_name":"Chacalluta"},{"id":359,"iata":"ARK","icao":"HTAR","name":"Arusha Airport","location":"Arusha, Tanzania","street_number":"","street":"A 104","city":"Arusha","county":"Arumeru","state":"Arusha Region","country_iso":"TZ","country":"Tanzania","postal_code":"","phone":"+255 27 250 5920","latitude":-3.3672488,"longitude":36.624912,"uct":180,"website":"http://www.taa.go.tz/","stripped_name":"Arusha"},{"id":361,"iata":"ARM","icao":"YARM","name":"Armidale Airport","location":"Armidale, New South Wales, Australia","street_number":"9","street":"Peter Monley Drive","city":"Armidale","county":"Armidale Dumaresq Council","state":"New South Wales","country_iso":"AU","country":"Australia","postal_code":"2350","phone":"+61 1300 136 833","latitude":-30.53213,"longitude":151.61496,"uct":660,"website":"http://www.armidaleairport.com/","stripped_name":"Armidale"},{"id":362,"iata":"ARN","icao":"ESSA","name":"Stockholm Arlanda Airport","location":"Stockholm, Sweden","street_number":"","street":"","city":"","county":"","state":"Stockholms län","country_iso":"SE","country":"Sweden","postal_code":"190 45","phone":"+46 10 109 10 00","latitude":59.64976,"longitude":17.92378,"uct":120,"website":"http://www.swedavia.se/arlanda/","stripped_name":"Stockholm Arlanda"},{"id":368,"iata":"ART","icao":"KART","name":"Watertown International Airport","location":"Watertown, New York, United States","street_number":"22529","street":"Airport Dr","city":"Dexter","county":"Jefferson County","state":"New York","country_iso":"US","country":"United States","postal_code":"13634","phone":"+1 315-786-6000","latitude":43.995663,"longitude":-76.02236,"uct":-240,"website":"http://www.watertownairport.com/","stripped_name":"Watertown"},{"id":369,"iata":"ARU","icao":"SBAU","name":"Araçatuba Airport","location":"Araçatuba, São Paulo, Brazil","street_number":"","street":"Via de Acesso Olegário Ferraz","city":"","county":"Araçatuba","state":"São Paulo","country_iso":"BR","country":"Brazil","postal_code":"16052-800","phone":"+55 18 3621-3001","latitude":-21.13759,"longitude":-50.425983,"uct":-180,"website":"http://www.daesp.sp.gov.br/aeroporto-detalhe/?id=841","stripped_name":"Araçatuba"},{"id":371,"iata":"ARW","icao":"LRAR","name":"Arad International Airport","location":"Arad, Romania","street_number":"","street":"Aleea Aeroport","city":"Arad","county":"Municipiul Arad","state":"Județul Arad","country_iso":"RO","country":"Romania","postal_code":"","phone":"+40 257 339 010","latitude":46.17237,"longitude":21.278345,"uct":180,"website":"http://aeroportularad.ro/","stripped_name":"Arad"},{"id":374,"iata":"ASA","icao":"HHSB","name":"Assab International Airport","location":"Assab, Eritrea","street_number":"","street":"","city":"","county":"Southern Dankalia","state":"Southern Red Sea","country_iso":"ER","country":"Eritrea","postal_code":"","phone":"","latitude":13.071139,"longitude":42.645916,"uct":180,"website":"","stripped_name":"Assab"},{"id":375,"iata":"ASB","icao":"UTAA","name":"Ashgabat International Airport","location":"Ashgabat, Turkmenistan","street_number":"","street":"","city":"Ashgabat","county":"","state":"Ashgabat","country_iso":"TM","country":"Turkmenistan","postal_code":"","phone":"","latitude":37.984512,"longitude":58.366512,"uct":300,"website":"http://www.ashgabatairport.gov.tm/","stripped_name":"Ashgabat"},{"id":378,"iata":"ASE","icao":"KASE","name":"Aspen–Pitkin County Airport (Sardy Field)","location":"Aspen, Colorado, United States","street_number":"233","street":"West Airport Road","city":"Aspen","county":"Pitkin County","state":"Colorado","country_iso":"US","country":"United States","postal_code":"81611","phone":"+1 970-920-5384","latitude":39.22002,"longitude":-106.86452,"uct":-360,"website":"http://www.aspenairport.com/","stripped_name":"Aspen–Pitkin County  (Sardy Field)"},{"id":379,"iata":"ASF","icao":"URWA","name":"Narimanovo Airport","location":"Astrakhan, Astrakhan Oblast, Russia","street_number":"1, стр. 2","street":"Аэропортовский пр-д","city":"Astrakhan","county":"Gorod Astrakhan'","state":"Astrakhanskaya oblast'","country_iso":"RU","country":"Russia","postal_code":"414018","phone":"+7 851 239-33-17","latitude":46.287037,"longitude":47.99988,"uct":240,"website":"http://аэропортастрахань.рф/","stripped_name":"Narimanovo"},{"id":382,"iata":"ASI","icao":"FHAW","name":"RAF Ascension Island (Wideawake Field)","location":"Ascension Island, British Overseas Territoryof Saint Helena, Ascension and Tristan da Cunha","street_number":"","street":"","city":"","county":"","state":"Ascension","country_iso":"SH","country":"Saint Helena, Ascension and Tristan da Cunha","postal_code":"ASCN 1ZZ","phone":"","latitude":-7.968347,"longitude":-14.402837,"uct":0,"website":"","stripped_name":"RAF Ascension Island (Wideawake Field)"},{"id":383,"iata":"ASJ","icao":"RJKA","name":"Amami Airport","location":"Amami, Satsunan Islands, Japan","street_number":"","street":"","city":"Amami-shi","county":"","state":"Kagoshima-ken","country_iso":"JP","country":"Japan","postal_code":"894-0504","phone":"+81 997-63-2295","latitude":28.430834,"longitude":129.7125,"uct":540,"website":"http://www.synapse.ne.jp/~aatb/","stripped_name":"Amami"},{"id":386,"iata":"ASM","icao":"HHAS","name":"Asmara International Airport","location":"Asmara, Eritrea","street_number":"","street":"Hday Street","city":"Asmara","county":"Gala Nethi","state":"Central","country_iso":"ER","country":"Eritrea","postal_code":"","phone":"+291 1 181 241","latitude":15.285,"longitude":38.90167,"uct":180,"website":"","stripped_name":"Asmara"},{"id":388,"iata":"ASO","icao":"HASO","name":"Asosa Airport","location":"Asosa, Ethiopia","street_number":"","street":"5","city":"","county":"Asosa","state":"Benishangul-Gumuz","country_iso":"ET","country":"Ethiopia","postal_code":"","phone":"","latitude":10.023081,"longitude":34.57845,"uct":180,"website":"","stripped_name":"Asosa"},{"id":389,"iata":"ASP","icao":"YBAS","name":"Alice Springs Airport","location":"Alice Springs, Northern Territory, Australia","street_number":"","street":"Santa Teresa Road","city":"Alice Springs","county":"Alice Springs Municipality","state":"Northern Territory","country_iso":"AU","country":"Australia","postal_code":"871","phone":"+61 8 8951 1211","latitude":-23.804903,"longitude":133.9023,"uct":570,"website":"http://www.alicespringsairport.com.au/","stripped_name":"Alice Springs"},{"id":391,"iata":"ASR","icao":"LTAU","name":"Erkilet International Airport","location":"Kayseri, Turkey","street_number":"","street":"Mustafa Kemal Paşa Bulvarı","city":"","county":"Kocasinan","state":"Kayseri","country_iso":"TR","country":"Turkey","postal_code":"38090","phone":"+90 352 337 52 44","latitude":38.77241,"longitude":35.493206,"uct":180,"website":"http://www.kayseri.dhmi.gov.tr/havaalanlari/default.aspx?hv=27","stripped_name":"Erkilet"},{"id":393,"iata":"ASU","icao":"SGAS","name":"Silvio Pettirossi International Airport","location":"Asunción, Paraguay","street_number":"","street":"Autopista Silvio Pettisossi","city":"Luque","county":"","state":"Departamento Central","country_iso":"PY","country":"Paraguay","postal_code":"","phone":"+595 21 688 2000","latitude":-25.241512,"longitude":-57.514183,"uct":-180,"website":"http://www.dinac.gov.py/v2/index.php?option=com_k2&view=itemlist&task=category&id=49:aeropuerto-internacional-silvio-pettirossi&Itemid=205","stripped_name":"Silvio Pettirossi"},{"id":394,"iata":"ASV","icao":"HKAM","name":"Amboseli Airport","location":"Amboseli, Kenya","street_number":"","street":"","city":"","county":"","state":"Kajiado County","country_iso":"KE","country":"Kenya","postal_code":"","phone":"","latitude":-2.6456487,"longitude":37.24872,"uct":180,"website":"http://aeroclubairfields.com/go.php?mod=public&loco=airstrips&view=332","stripped_name":"Amboseli"},{"id":395,"iata":"ASW","icao":"HESN","name":"Aswan International Airport","location":"Aswan, Egypt","street_number":"","street":"","city":"","county":"","state":"","country_iso":"EG","country":"Egypt","postal_code":"","phone":"+20 97 3482440","latitude":23.966442,"longitude":32.824474,"uct":120,"website":"http://www.eac-airports.com/index.php/en/international-airports/aswan-airport","stripped_name":"Aswan"},{"id":401,"iata":"ATC","icao":"MYCA","name":"Arthur's Town Airport","location":"Arthur's Town, Cat Island, Bahamas","street_number":"","street":"","city":"Arthur's Town","county":"","state":"Cat Island","country_iso":"BS","country":"The Bahamas","postal_code":"","phone":"+1 242-354-2236","latitude":24.629278,"longitude":-75.67499,"uct":-240,"website":"https://nfdc.faa.gov/nfdcApps/airportLookup/airportDisplay.jsp?category=nasr&airportId=MYCA","stripped_name":"Arthur's Town"},{"id":406,"iata":"ATH","icao":"LGAV","name":"Athens International Airport (Eleftherios Venizelos Airport)","location":"Athens, Greece","street_number":"","street":"Attiki Odos","city":"","county":"","state":"","country_iso":"GR","country":"Greece","postal_code":"190 04","phone":"+30 21 0353 0000","latitude":37.935646,"longitude":23.948416,"uct":180,"website":"http://www.aia.gr/traveler/","stripped_name":"Athens   (Eleftherios Venizelos )"},{"id":410,"iata":"ATL","icao":"KATL","name":"Hartsfield–Jackson Atlanta International Airport","location":"Atlanta, Georgia, United States","street_number":"6000","street":"North Terminal Parkway","city":"Atlanta","county":"","state":"Georgia","country_iso":"US","country":"United States","postal_code":"30320","phone":"+1 800-897-1910","latitude":33.640728,"longitude":-84.427704,"uct":-240,"website":"http://www.atl.com/","stripped_name":"Hartsfield–Jackson Atlanta"},{"id":411,"iata":"ATM","icao":"SBHT","name":"Altamira Airport","location":"Altamira, Pará, Brazil","street_number":"S/N","street":"Avenida Tancredo Neves","city":"","county":"Altamira","state":"Pará","country_iso":"BR","country":"Brazil","postal_code":"68372-590","phone":"+55 93 3515-1976","latitude":-3.2535655,"longitude":-52.24909,"uct":-180,"website":"http://www4.infraero.gov.br/aeroportos/aeroporto-de-altamira-para","stripped_name":"Altamira"},{"id":415,"iata":"ATQ","icao":"VIAR","name":"Sri Guru Ram Dass Jee International Airport","location":"Amritsar, Punjab, India","street_number":"","street":"","city":"Amritsar","county":"Amritsar","state":"Punjab","country_iso":"IN","country":"India","postal_code":"143101","phone":"+91 183 221 4118","latitude":31.70724,"longitude":74.7989,"uct":330,"website":"http://www.amritsarairport.com/","stripped_name":"Sri Guru Ram Dass Jee"},{"id":423,"iata":"ATY","icao":"KATY","name":"Watertown Regional Airport","location":"Watertown, South Dakota, United States","street_number":"2416","street":"Boeing Avenue","city":"Watertown","county":"Codington County","state":"South Dakota","country_iso":"US","country":"United States","postal_code":"57201","phone":"+1 605-882-6209","latitude":44.92134,"longitude":-97.16116,"uct":-300,"website":"https://www.watertownsd.us/853/Watertown-Regional-Airport","stripped_name":"Watertown Regional"},{"id":424,"iata":"ATZ","icao":"HEAT","name":"Assiut Airport","location":"Assiut, Egypt","street_number":"","street":"Kharga - Asyuit Road","city":"","county":"قسم الواحات الخارجة","state":"الوادي الجديد","country_iso":"EG","country":"Egypt","postal_code":"","phone":"+20 88 2301644","latitude":27.050007,"longitude":31.015408,"uct":120,"website":"http://www.egyptair.com/","stripped_name":"Assiut"},{"id":425,"iata":"AUA","icao":"TNCA","name":"Queen Beatrix International Airport","location":"Aruba, Kingdom of the Netherlands","street_number":"","street":"","city":"Oranjestad","county":"","state":"","country_iso":"AW","country":"Aruba","postal_code":"","phone":"+297 524 2424","latitude":12.501594,"longitude":-70.01199,"uct":-240,"website":"http://www.airportaruba.com/","stripped_name":"Queen Beatrix"},{"id":426,"iata":"AUC","icao":"SKUC","name":"Santiago Pérez Quiroz Airport","location":"Arauca, Colombia","street_number":"","street":"","city":"","county":"Arauca","state":"Arauca","country_iso":"CO","country":"Colombia","postal_code":"810009","phone":"+57 313 3565188","latitude":7.0681634,"longitude":-70.73531,"uct":-300,"website":"http://www.aerocivil.gov.co/aeropuertos/Pages/santiago-perez-quiroz.aspx","stripped_name":"Santiago Pérez Quiroz"},{"id":430,"iata":"AUG","icao":"KAUG","name":"Augusta State Airport","location":"Augusta, Maine, United States","street_number":"75","street":"Airport Road","city":"Augusta","county":"Kennebec County","state":"Maine","country_iso":"US","country":"United States","postal_code":"4330","phone":"+1 207-626-2306","latitude":44.31882,"longitude":-69.79554,"uct":-240,"website":"http://www.augustamaine.gov/departments/augusta_state_airport/","stripped_name":"Augusta State"},{"id":431,"iata":"AUH","icao":"OMAA","name":"Abu Dhabi International Airport","location":"Abu Dhabi, United Arab Emirates","street_number":"","street":"","city":"Abu Dhabi","county":"","state":"Abu Dhabi","country_iso":"AE","country":"United Arab Emirates","postal_code":"","phone":"+971 2 505 5555","latitude":24.441938,"longitude":54.650074,"uct":240,"website":"http://www.abudhabiairport.ae/","stripped_name":"Abu Dhabi"},{"id":440,"iata":"AUQ","icao":"NTMN","name":"Atuona Airport","location":"Atuona, Marquesas Islands, French Polynesia","street_number":"","street":"","city":"","county":"Southern Group","state":"Marquesas Islands","country_iso":"PF","country":"French Polynesia","postal_code":"","phone":"","latitude":-9.769181,"longitude":-139.01135,"uct":-570,"website":"","stripped_name":"Atuona"},{"id":441,"iata":"AUR","icao":"LFLW","name":"Aurillac – Tronquières Airport","location":"Aurillac, Auvergne, France","street_number":"","street":"Avenue de Tronquières","city":"Aurillac","county":"Cantal","state":"Auvergne-Rhône-Alpes","country_iso":"FR","country":"France","postal_code":"15000","phone":"+33 4 71 64 50 00","latitude":44.897808,"longitude":2.420643,"uct":120,"website":"https://www.caba.fr/aeroport/","stripped_name":"Aurillac – Tronquières"},{"id":442,"iata":"AUS","icao":"KAUS","name":"Austin–Bergstrom International Airport","location":"Austin, Texas, United States","street_number":"3600","street":"Presidential Boulevard","city":"Austin","county":"Travis County","state":"Texas","country_iso":"US","country":"United States","postal_code":"78719","phone":"+1 512-530-2242","latitude":30.197472,"longitude":-97.66635,"uct":-300,"website":"http://www.austintexas.gov/airport/","stripped_name":"Austin–Bergstrom"},{"id":447,"iata":"AUX","icao":"SWGN","name":"Araguaína Airport","location":"Araguaína, Tocantins, Brazil","street_number":"280","street":"Avenida Dionísio Farias","city":"","county":"Araguaína","state":"Tocantins","country_iso":"BR","country":"Brazil","postal_code":"65907-230","phone":"+55 63 99291-8995","latitude":-7.2283916,"longitude":-48.240532,"uct":-180,"website":"","stripped_name":"Araguaína"},{"id":450,"iata":"AVA","icao":"ZUAS","name":"Anshun Huangguoshu Airport","location":"Anshun, Guizhou, China","street_number":"","street":"","city":"Anshun","county":"","state":"Guizhou","country_iso":"CN","country":"China","postal_code":"561000","phone":"","latitude":26.254,"longitude":105.876465,"uct":480,"website":"","stripped_name":"Anshun Huangguoshu"},{"id":453,"iata":"AVI","icao":"MUCA","name":"Máximo Gómez Airport","location":"Ciego de Ávila, Cuba","street_number":"","street":"","city":"","county":"","state":"","country_iso":"","country":"","postal_code":"","phone":"","latitude":0,"longitude":0,"uct":0,"website":"","stripped_name":"Máximo Gómez"},{"id":454,"iata":"AVK","icao":"ZMAH","name":"Arvaikheer Airport","location":"Arvaikheer, Mongolia","street_number":"","street":"","city":"Arvaikheer","county":"Taragt","state":"Övörkhangai","country_iso":"MN","country":"Mongolia","postal_code":"","phone":"","latitude":46.250088,"longitude":102.80302,"uct":480,"website":"","stripped_name":"Arvaikheer"},{"id":455,"iata":"AVL","icao":"KAVL","name":"Asheville Regional Airport","location":"Asheville, North Carolina, United States","street_number":"61","street":"Terminal Drive","city":"Fletcher","county":"Buncombe County","state":"North Carolina","country_iso":"US","country":"United States","postal_code":"28732","phone":"+1 828-684-2226","latitude":35.434895,"longitude":-82.53786,"uct":-240,"website":"http://flyavl.com/","stripped_name":"Asheville Regional"},{"id":456,"iata":"AVN","icao":"LFMV","name":"Avignon – Provence Airport","location":"Avignon, Provence-Alpes-Côte d'Azur, France","street_number":"100","street":"rue Marise Bastié","city":"Avignon","county":"Vaucluse","state":"Provence-Alpes-Côte d'Azur","country_iso":"FR","country":"France","postal_code":"84140","phone":"+33 4 90 81 51 51","latitude":43.90715,"longitude":4.9018307,"uct":120,"website":"http://www.avignon.aeroport.fr/","stripped_name":"Avignon – Provence"},{"id":458,"iata":"AVP","icao":"KAVP","name":"Wilkes-Barre/Scranton International Airport","location":"Wilkes-Barre / Scranton, Pennsylvania, United States","street_number":"100","street":"Terminal Road","city":"Avoca","county":"","state":"Pennsylvania","country_iso":"US","country":"United States","postal_code":"18641","phone":"+1 570-602-2000","latitude":41.337933,"longitude":-75.72464,"uct":-240,"website":"http://flyavp.com/","stripped_name":"Wilkes-Barre/Scranton"},{"id":460,"iata":"AVV","icao":"YMAV","name":"Avalon Airport","location":"Avalon, Victoria, Australia","street_number":"80","street":"Beach Rd","city":"Lara","county":"Greater Geelong City","state":"Victoria","country_iso":"AU","country":"Australia","postal_code":"3212","phone":"+61 3 5227 9100","latitude":-38.038635,"longitude":144.46889,"uct":660,"website":"http://www.avalonairport.com.au/","stripped_name":"Avalon"},{"id":467,"iata":"AWK","icao":"PWAK","name":"Wake Island Airfield","location":"Wake Island, United States Minor Outlying Islands","street_number":"","street":"","city":"Wake Island","county":"Wake Island","state":"","country_iso":"US","country":"United States","postal_code":"","phone":"","latitude":19.279959,"longitude":166.6477,"uct":720,"website":"","stripped_name":"Wake Island Airfield"},{"id":472,"iata":"AWZ","icao":"OIAW","name":"Ahvaz International Airport","location":"Ahvaz, Iran","street_number":"","street":"","city":"Ahvaz","county":"","state":"Khuzestan Province","country_iso":"IR","country":"Iran","postal_code":"","phone":"+98 61 3443 4601","latitude":31.342964,"longitude":48.7469,"uct":210,"website":"https://ahwaz.airport.ir/","stripped_name":"Ahvaz"},{"id":473,"iata":"AXA","icao":"TQPF","name":"Clayton J. Lloyd International Airport","location":"The Valley, British Overseas Territory of Anguilla","street_number":"","street":"","city":"The Valley","county":"","state":"","country_iso":"AI","country":"Anguilla","postal_code":"2640","phone":"+1 264-497-3510","latitude":18.20659,"longitude":-63.05263,"uct":-240,"website":"http://www.gov.ai/airport.php","stripped_name":"Clayton J. Lloyd"},{"id":476,"iata":"AXD","icao":"LGAL","name":"Alexandroupoli Airport (Dimokritos Airport)","location":"Alexandroupoli, Greece","street_number":"","street":"","city":"","county":"","state":"","country_iso":"GR","country":"Greece","postal_code":"681 00","phone":"","latitude":40.85657,"longitude":25.944748,"uct":180,"website":"http://www.axdairport.com/","stripped_name":"Alexandroupoli  (Dimokritos )"},{"id":478,"iata":"AXF","icao":"","name":"Alxa Left Banner Bayanhot Airport","location":"Alxa Left Banner, Inner Mongolia, China","street_number":"","street":"","city":"","county":"","state":"","country_iso":"","country":"","postal_code":"","phone":"","latitude":0,"longitude":0,"uct":0,"website":"","stripped_name":"Alxa Left Banner Bayanhot"},{"id":483,"iata":"AXM","icao":"SKAR","name":"El Edén International Airport","location":"Armenia, Colombia","street_number":"22-08","street":"Calle 23","city":"Armenia","county":"Armenia","state":"Quindío","country_iso":"CO","country":"Colombia","postal_code":"630002","phone":"+57 6 7479400","latitude":4.4528823,"longitude":-75.7663,"uct":-300,"website":"","stripped_name":"El Edén"},{"id":485,"iata":"AXP","icao":"MYAP","name":"Spring Point Airport","location":"Spring Point, Acklins Island, Bahamas","street_number":"","street":"","city":"Spring Point Settlement","county":"","state":"Acklins","country_iso":"BS","country":"The Bahamas","postal_code":"","phone":"+1 242-344-3666","latitude":22.442047,"longitude":-73.97066,"uct":-240,"website":"","stripped_name":"Spring Point"},{"id":486,"iata":"AXR","icao":"NTGU","name":"Arutua Airport","location":"Arutua, Tuamotus, French Polynesia","street_number":"","street":"","city":"","county":"Tuamotus Islands","state":"The Tuamotu and Gambier Islands","country_iso":"PF","country":"French Polynesia","postal_code":"","phone":"","latitude":-15.666667,"longitude":-146.88611,"uct":-600,"website":"","stripped_name":"Arutua"},{"id":488,"iata":"AXT","icao":"RJSK","name":"Akita Airport","location":"Akita, Honshu, Japan","street_number":"","street":"","city":"Akita-shi","county":"","state":"Akita-ken","country_iso":"JP","country":"Japan","postal_code":"010-1211","phone":"+81 18-886-3362","latitude":39.6119,"longitude":140.21986,"uct":540,"website":"http://www.akita-airport.com/","stripped_name":"Akita"},{"id":489,"iata":"AXU","icao":"HAAX","name":"Axum Airport","location":"Axum, Ethiopia","street_number":"","street":"","city":"Aksum","county":"Central Tigray","state":"Tigray","country_iso":"ET","country":"Ethiopia","postal_code":"","phone":"+251 34 442 0237","latitude":14.144398,"longitude":38.774773,"uct":180,"website":"","stripped_name":"Axum"},{"id":502,"iata":"AYP","icao":"SPHO","name":"Coronel FAP Alfredo Mendívil Duarte Airport","location":"Ayacucho, Peru","street_number":"961","street":"Amancaes","city":"Ayacucho","county":"Huamanga","state":"Ayacucho","country_iso":"PE","country":"Peru","postal_code":"","phone":"+51 66 312418","latitude":-13.15359,"longitude":-74.20623,"uct":-300,"website":"http://www.corpac.gob.pe/Main.asp?T=4120","stripped_name":"Coronel FAP Alfredo Mendívil Duarte"},{"id":503,"iata":"AYQ","icao":"YAYE","name":"Ayers Rock Airport","location":"Yulara, Northern Territory, Australia","street_number":"","street":"","city":"Yulara","county":"Yulara (Unincorporated)","state":"Northern Territory","country_iso":"AU","country":"Australia","postal_code":"872","phone":"","latitude":-25.190514,"longitude":130.97627,"uct":570,"website":"","stripped_name":"Ayers Rock"},{"id":506,"iata":"AYT","icao":"LTAI","name":"Antalya Airport","location":"Antalya, Turkey","street_number":"","street":"Antalya Havaalanı Dış Hatlar Terminali 1","city":"","county":"Muratpaşa","state":"Antalya","country_iso":"TR","country":"Turkey","postal_code":"7230","phone":"+90 242 444 74 23","latitude":36.90433,"longitude":30.801876,"uct":180,"website":"http://www.icfairports.com/","stripped_name":"Antalya"},{"id":510,"iata":"AZA","icao":"KIWA","name":"Phoenix–Mesa Gateway Airport (FAA: IWA)","location":"Phoenix, Arizona, United States","street_number":"6033","street":"South Sossaman Road","city":"Mesa","county":"Maricopa County","state":"Arizona","country_iso":"US","country":"United States","postal_code":"85212","phone":"+1 480-988-7600","latitude":33.306534,"longitude":-111.66255,"uct":-420,"website":"http://www.gatewayairport.com/","stripped_name":"Phoenix–Mesa Gateway  (FAA: IWA)"},{"id":512,"iata":"AZD","icao":"OIYY","name":"Shahid Sadooghi Airport","location":"Yazd, Iran","street_number":"","street":"","city":"Yazd","county":"","state":"Yazd Province","country_iso":"IR","country":"Iran","postal_code":"","phone":"+98 35 3721 4444","latitude":31.901522,"longitude":54.285587,"uct":210,"website":"http://yazd.airport.ir/","stripped_name":"Shahid Sadooghi"},{"id":516,"iata":"AZN","icao":"UTKA","name":"Andizhan Airport","location":"Andizhan, Uzbekistan","street_number":"","street":"","city":"Andijan","county":"","state":"Andijan region","country_iso":"UZ","country":"Uzbekistan","postal_code":"","phone":"+998 90 482 45 45","latitude":40.739174,"longitude":72.31322,"uct":300,"website":"","stripped_name":"Andizhan"},{"id":517,"iata":"AZO","icao":"KAZO","name":"Kalamazoo/Battle Creek International Airport","location":"Kalamazoo, Michigan, United States","street_number":"5235","street":"Portage Road","city":"Portage","county":"Kalamazoo County","state":"Michigan","country_iso":"US","country":"United States","postal_code":"49002","phone":"+1 269-388-3668","latitude":42.23555,"longitude":-85.55159,"uct":-240,"website":"http://azoairport.com/","stripped_name":"Kalamazoo/Battle Creek"},{"id":519,"iata":"AZR","icao":"DAUA","name":"Touat-Cheikh Sidi Mohamed Belkebir Airport","location":"Adrar, Algeria","street_number":"","street":"","city":"Adrar","county":"","state":"Adrar Province","country_iso":"DZ","country":"Algeria","postal_code":"","phone":"+213 49 96 93 19","latitude":27.841246,"longitude":-0.1880881,"uct":60,"website":"http://www.egsaoran.com/","stripped_name":"Touat-Cheikh Sidi Mohamed Belkebir"},{"id":520,"iata":"AZS","icao":"MDCY","name":"Samaná El Catey International Airport","location":"El Catey, Dominican Republic","street_number":"","street":"","city":"","county":"","state":"María Trinidad Sánchez Province","country_iso":"DO","country":"Dominican Republic","postal_code":"32000","phone":"+1 809-338-5888","latitude":19.267656,"longitude":-69.73046,"uct":-240,"website":"http://www.aerodom.com/app/do/aeropuertos_samana.aspx","stripped_name":"Samaná El Catey"},{"id":529,"iata":"BAG","icao":"RPUB","name":"Loakan Airport","location":"Baguio, Philippines","street_number":"","street":"","city":"","county":"","state":"","country_iso":"","country":"","postal_code":"","phone":"","latitude":0,"longitude":0,"uct":0,"website":"","stripped_name":"Loakan"},{"id":530,"iata":"BAH","icao":"OBBI","name":"Bahrain International Airport","location":"Manama, Bahrain","street_number":"","street":"Road 2404","city":"Muharraq","county":"","state":"Muharraq Governorate","country_iso":"BH","country":"Bahrain","postal_code":"","phone":"+973 8000 7777","latitude":26.269712,"longitude":50.625988,"uct":180,"website":"http://www.bahrainairport.com/","stripped_name":"Bahrain"},{"id":534,"iata":"BAL","icao":"LTCJ","name":"Batman Airport","location":"Batman, Turkey","street_number":"","street":"Silvan Yolu Üzeri 7. Km","city":"","county":"Batman Merkez","state":"Batman","country_iso":"TR","country":"Turkey","postal_code":"","phone":"+90 488 218 04 44","latitude":37.94616,"longitude":41.120907,"uct":180,"website":"http://www.batman.dhmi.gov.tr/havaalanlari/default.aspx?hv=44","stripped_name":"Batman"},{"id":538,"iata":"BAQ","icao":"SKBQ","name":"Ernesto Cortissoz International Airport","location":"Barranquilla, Colombia","street_number":"","street":"","city":"","county":"Soledad","state":"Atlántico","country_iso":"CO","country":"Colombia","postal_code":"","phone":"+57 5 3160900","latitude":10.886601,"longitude":-74.77643,"uct":-300,"website":"http://aeropuertobaq.com/","stripped_name":"Ernesto Cortissoz"},{"id":539,"iata":"BAR","icao":"","name":"Qionghai Bo'ao Airport","location":"Qionghai, Hainan, China","street_number":"","street":"","city":"Haikou","county":"","state":"Hainan","country_iso":"CN","country":"China","postal_code":"","phone":"+86 898 6576 0114","latitude":19.93854,"longitude":110.462135,"uct":480,"website":"http://www.mlairport.com/","stripped_name":"Qionghai Bo'ao"},{"id":542,"iata":"BAV","icao":"ZBOW","name":"Baotou Airport","location":"Baotou, Inner Mongolia, China","street_number":"","street":"","city":"Baotou","county":"","state":"Inner Mongolia","country_iso":"CN","country":"China","postal_code":"","phone":"","latitude":40.566456,"longitude":110.0022,"uct":480,"website":"","stripped_name":"Baotou"},{"id":544,"iata":"BAX","icao":"UNBB","name":"Barnaul Airport","location":"Barnaul, Altai Krai, Russia","street_number":"226","street":"Pavlovskiy Trakt","city":"Barnaul","county":"Barnaul","state":"Altayskiy kray","country_iso":"RU","country":"Russia","postal_code":"656057","phone":"+7 385 254-30-09","latitude":53.361263,"longitude":83.547386,"uct":420,"website":"http://www.airaltay.ru/","stripped_name":"Barnaul"},{"id":545,"iata":"BAY","icao":"LRBM","name":"Baia Mare Airport","location":"Baia Mare, Romania","street_number":"","street":"","city":"Tăuții-Măgherăuș","county":"Orașul Tăuții - Măgherăuș","state":"Județul Maramureș","country_iso":"RO","country":"Romania","postal_code":"437345","phone":"+40 262 293 444","latitude":47.66112,"longitude":23.467453,"uct":180,"website":"http://www.aimm.eu/","stripped_name":"Baia Mare"},{"id":547,"iata":"BBA","icao":"SCBA","name":"Balmaceda Airport","location":"Balmaceda, Chile","street_number":"","street":"","city":"","county":"Aysén Province","state":"Aysén Region","country_iso":"CL","country":"Chile","postal_code":"","phone":"+56 2 2222 8400","latitude":-45.91478,"longitude":-71.691826,"uct":-180,"website":"","stripped_name":"Balmaceda"},{"id":553,"iata":"BBI","icao":"VEBS","name":"Biju Patnaik International Airport","location":"Bhubaneswar, Odisha, India","street_number":"","street":"Airport Road","city":"Bhubaneswar","county":"Khordha","state":"Odisha","country_iso":"IN","country":"India","postal_code":"751020","phone":"+91 674 259 6305","latitude":20.250677,"longitude":85.81453,"uct":330,"website":"https://www.aai.aero/en/node/2902","stripped_name":"Biju Patnaik"},{"id":555,"iata":"BBK","icao":"FBKE","name":"Kasane Airport","location":"Kasane, Botswana","street_number":"","street":"Upper Road","city":"Kasane","county":"Chobe","state":"North-West District","country_iso":"BW","country":"Botswana","postal_code":"","phone":"+267 368 8200","latitude":-17.8306,"longitude":25.16372,"uct":120,"website":"http://www.caab.co.bw/caab-content.php?cid=256","stripped_name":"Kasane"},{"id":557,"iata":"BBM","icao":"VDBG","name":"Battambang Airport","location":"Battambang, Cambodia","street_number":"","street":"5","city":"ក្រុងបាត់ដំបង","county":"បាត់ដំបង","state":"ខេត្ត​បាត់ដំបង","country_iso":"KH","country":"Cambodia","postal_code":"","phone":"","latitude":13.091987,"longitude":103.22276,"uct":420,"website":"","stripped_name":"Battambang"},{"id":558,"iata":"BBN","icao":"WBGZ","name":"Bario Airport","location":"Bario, Sarawak, Malaysia","street_number":"","street":"","city":"Bario","county":"","state":"Sarawak","country_iso":"MY","country":"Malaysia","postal_code":"98800","phone":"+60 85-615 204","latitude":3.734438,"longitude":115.47976,"uct":480,"website":"http://www.malaysiaairports.com.my/?m=business&c=business_about&id=21","stripped_name":"Bario"},{"id":559,"iata":"BBO","icao":"HCMI","name":"Berbera Airport","location":"Berbera, Somalia","street_number":"","street":"","city":"","county":"Berbera","state":"Woqooyi Galbeed","country_iso":"SO","country":"Somalia","postal_code":"","phone":"+252 63 4486525","latitude":10.391332,"longitude":44.94358,"uct":180,"website":"","stripped_name":"Berbera"},{"id":561,"iata":"BBQ","icao":"TAPH","name":"Barbuda Codrington Airport","location":"Barbuda, Antigua and Barbuda","street_number":"","street":"","city":"Codrington","county":"","state":"Barbuda","country_iso":"AG","country":"Antigua and Barbuda","postal_code":"","phone":"","latitude":17.635834,"longitude":-61.826946,"uct":-240,"website":"","stripped_name":"Barbuda Codrington"},{"id":571,"iata":"BCA","icao":"MUBA","name":"Gustavo Rizo Airport","location":"Baracoa, Cuba","street_number":"","street":"","city":"Baracoa","county":"Baracoa","state":"Guantanamo","country_iso":"CU","country":"Cuba","postal_code":"","phone":"+53 21 641665","latitude":20.3584,"longitude":-74.50417,"uct":-240,"website":"","stripped_name":"Gustavo Rizo"},{"id":574,"iata":"BCD","icao":"RPVB","name":"Bacolod–Silay International Airport","location":"Bacolod, Philippines","street_number":"","street":"Airport Road","city":"Silay City","county":"Negros Occidental","state":"Western Visayas","country_iso":"PH","country":"Philippines","postal_code":"6116","phone":"+63 34 435 2448","latitude":10.776625,"longitude":123.01491,"uct":480,"website":"","stripped_name":"Bacolod–Silay"},{"id":579,"iata":"BCI","icao":"YBAR","name":"Barcaldine Airport","location":"Barcaldine, Queensland, Australia","street_number":"35","street":"Myall Street","city":"Barcaldine","county":"Barcaldine Regional","state":"Queensland","country_iso":"AU","country":"Australia","postal_code":"4725","phone":"","latitude":-23.56168,"longitude":145.30205,"uct":600,"website":"","stripped_name":"Barcaldine"},{"id":581,"iata":"BCL","icao":"MRBC","name":"Barra del Colorado Airport","location":"Barra del Colorado, Costa Rica","street_number":"","street":"","city":"","county":"Pococí","state":"","country_iso":"CR","country":"Costa Rica","postal_code":"","phone":"","latitude":10.768042,"longitude":-83.58545,"uct":-360,"website":"","stripped_name":"Barra del Colorado"},{"id":582,"iata":"BCM","icao":"LRBC","name":"Bacău International Airport","location":"Bacău, Romania","street_number":"1","street":"Strada Aeroportului","city":"Bacău","county":"","state":"Județul Bacău","country_iso":"RO","country":"Romania","postal_code":"600324","phone":"+40 234 575 400","latitude":46.53105,"longitude":26.910706,"uct":180,"website":"http://www.bacauairport.ro/","stripped_name":"Bacău"},{"id":583,"iata":"BCN","icao":"LEBL","name":"Barcelona–El Prat Airport","location":"Barcelona, Catalonia, Spain","street_number":"","street":"","city":"El Prat de Llobregat","county":"Barcelona","state":"Catalonia","country_iso":"ES","country":"Spain","postal_code":"8820","phone":"+34 902 40 47 04","latitude":41.297443,"longitude":2.0832942,"uct":120,"website":"http://www.aena-aeropuertos.es/csee/Satellite/Aeropuerto-Barcelona","stripped_name":"Barcelona–El Prat"},{"id":590,"iata":"BCU","icao":"","name":"Bauchi State Airport","location":"Bauchi, Nigeria","street_number":"","street":"A345","city":"","county":"Akko","state":"Gombe","country_iso":"NG","country":"Nigeria","postal_code":"","phone":"","latitude":10.306852,"longitude":10.90756,"uct":60,"website":"","stripped_name":"Bauchi State"},{"id":592,"iata":"BCW","icao":"","name":"Benguerra Island Airport","location":"Benguerra Island, Mozambique","street_number":"","street":"","city":"Benguera Island","county":"","state":"","country_iso":"MZ","country":"Mozambique","postal_code":"","phone":"","latitude":-21.884722,"longitude":35.425,"uct":120,"website":"","stripped_name":"Benguerra Island"},{"id":596,"iata":"BDA","icao":"TXKF","name":"L.F. Wade International Airport","location":"Hamilton, British Overseas Territory of Bermuda","street_number":"","street":"","city":"","county":"","state":"St. George's Parish","country_iso":"BM","country":"Bermuda","postal_code":"","phone":"+1 441-293-2470","latitude":32.35983,"longitude":-64.702034,"uct":-180,"website":"http://www.bermudaairport.com/pages/contacts.aspx","stripped_name":"L.F. Wade"},{"id":597,"iata":"BDB","icao":"YBUD","name":"Bundaberg Airport","location":"Bundaberg, Queensland, Australia","street_number":"","street":"Airport Drive","city":"Bundaberg","county":"Bundaberg Regional","state":"Queensland","country_iso":"AU","country":"Australia","postal_code":"4670","phone":"+61 1300 883 699","latitude":-24.900074,"longitude":152.3221,"uct":600,"website":"http://www.bundaberg.qld.gov.au/airport","stripped_name":"Bundaberg"},{"id":603,"iata":"BDH","icao":"OIBL","name":"Bandar Lengeh Airport","location":"Bandar Lengeh, Iran","street_number":"","street":"","city":"Bandar Lengeh","county":"","state":"Hormozgan Province","country_iso":"IR","country":"Iran","postal_code":"","phone":"+98 76 4422 3111","latitude":26.531288,"longitude":54.82775,"uct":210,"website":"","stripped_name":"Bandar Lengeh"},{"id":607,"iata":"BDL","icao":"KBDL","name":"Bradley International Airport","location":"Windsor Locks / Hartford, Connecticut, United States","street_number":"","street":"Schoephoester Road","city":"Windsor Locks","county":"Hartford County","state":"Connecticut","country_iso":"US","country":"United States","postal_code":"6096","phone":"+1 860-292-2000","latitude":41.938873,"longitude":-72.686035,"uct":-240,"website":"http://www.bradleyairport.com/","stripped_name":"Bradley"},{"id":610,"iata":"BDO","icao":"WICC","name":"Husein Sastranegara International Airport","location":"Bandung, Indonesia","street_number":"","street":"","city":"","county":"","state":"","country_iso":"","country":"","postal_code":"","phone":"","latitude":0,"longitude":0,"uct":0,"website":"","stripped_name":"Husein Sastranegara"},{"id":612,"iata":"BDQ","icao":"VABO","name":"Vadodara Airport (Civil Airport Harni)","location":"Vadodara, Gujarat, India","street_number":"","street":"","city":"Vadodara","county":"Vadodara","state":"Gujarat","country_iso":"IN","country":"India","postal_code":"390022","phone":"+91 265 248 5356","latitude":22.332462,"longitude":73.21706,"uct":330,"website":"http://aai.aero/","stripped_name":"Vadodara  (Civil  Harni)"},{"id":613,"iata":"BDR","icao":"KBDR","name":"Igor I. Sikorsky Memorial Airport","location":"Bridgeport, Connecticut, United States","street_number":"1000","street":"Great Meadow Road","city":"Stratford","county":"Fairfield County","state":"Connecticut","country_iso":"US","country":"United States","postal_code":"6497","phone":"+1 203-576-8161","latitude":41.16421,"longitude":-73.124664,"uct":-240,"website":"http://bridgeportct.gov/airport","stripped_name":"Igor I. Sikorsky Memorial"},{"id":614,"iata":"BDS","icao":"LIBR","name":"Brindisi – Salento Airport","location":"Brindisi, Apulia, Italy","street_number":"","street":"Contrada Baroncino","city":"Brindisi","county":"Provincia di Brindisi","state":"Puglia","country_iso":"IT","country":"Italy","postal_code":"72100","phone":"+39 0831 411 7406","latitude":40.65676,"longitude":17.945349,"uct":120,"website":"http://www.aeroportidipuglia.it/brindisi14","stripped_name":"Brindisi – Salento"},{"id":615,"iata":"BDT","icao":"FZFD","name":"Gbadolite Airport","location":"Gbadolite, Democratic Republic of the Congo","street_number":"","street":"","city":"Gbadolite","county":"Nord-Ubangi","state":"Equator","country_iso":"CD","country":"Democratic Republic of the Congo","postal_code":"","phone":"","latitude":4.2531157,"longitude":20.975346,"uct":60,"website":"","stripped_name":"Gbadolite"},{"id":616,"iata":"BDU","icao":"ENDU","name":"Bardufoss Airport","location":"Bardufoss, Norway","street_number":"","street":"","city":"Bardufoss","county":"Målselv Municipality","state":"Troms","country_iso":"NO","country":"Norway","postal_code":"9325","phone":"+47 67 03 44 00","latitude":69.0596,"longitude":18.538963,"uct":120,"website":"https://avinor.no/flyplass/bardufoss/","stripped_name":"Bardufoss"},{"id":623,"iata":"BEB","icao":"EGPL","name":"Benbecula Airport","location":"Benbecula, Scotland, United Kingdom","street_number":"","street":"","city":"Balivanich","county":"","state":"Scotland","country_iso":"GB","country":"United Kingdom","postal_code":"HS7 5LW","phone":"+44 1870 602051","latitude":57.475,"longitude":-7.372312,"uct":60,"website":"http://www.hial.co.uk/benbecula-airport","stripped_name":"Benbecula"},{"id":627,"iata":"BEF","icao":"MNBL","name":"Bluefields Airport","location":"Bluefields, Nicaragua","street_number":"","street":"","city":"Bluefields","county":"","state":"South Caribbean Coast Autonomous Region","country_iso":"NI","country":"Nicaragua","postal_code":"","phone":"","latitude":11.991944,"longitude":-83.7725,"uct":-360,"website":"","stripped_name":"Bluefields"},{"id":628,"iata":"BEG","icao":"LYBE","name":"Belgrade Nikola Tesla Airport","location":"Belgrade, Serbia","street_number":"","street":"","city":"Beograd","county":"Grad Beograd","state":"","country_iso":"RS","country":"Serbia","postal_code":"11180","phone":"+381 11 2094444","latitude":44.8205,"longitude":20.29169,"uct":120,"website":"http://www.beg.aero/","stripped_name":"Belgrade Nikola Tesla"},{"id":631,"iata":"BEJ","icao":"WALK","name":"Kalimarau Airport","location":"Tanjung Redeb, Indonesia","street_number":"","street":"","city":"","county":"Berau Regency","state":"East Kalimantan","country_iso":"ID","country":"Indonesia","postal_code":"77315","phone":"+62 554 2703277","latitude":2.1478841,"longitude":117.43391,"uct":480,"website":"","stripped_name":"Kalimarau"},{"id":633,"iata":"BEL","icao":"SBBE","name":"Val de Cans International Airport","location":"Belém, Pará, Brazil","street_number":"s/n","street":"Avenida Júlio César","city":"","county":"Belém","state":"Pará","country_iso":"BR","country":"Brazil","postal_code":"66115-970","phone":"+55 91 3210-6000","latitude":-1.3820615,"longitude":-48.477524,"uct":-180,"website":"http://www4.infraero.gov.br/aeroportos/aeroporto-internacional-de-belem-val-de-cans-julio-cezar-ribeiro/","stripped_name":"Val de Cans"},{"id":635,"iata":"BEN","icao":"HLLB","name":"Benina International Airport","location":"Benghazi, Libya","street_number":"","street":"","city":"","county":"","state":"","country_iso":"","country":"","postal_code":"","phone":"","latitude":0,"longitude":0,"uct":0,"website":"","stripped_name":"Benina"},{"id":639,"iata":"BER","icao":"EDDB","name":"Berlin Brandenburg Airport (in construction)","location":"Berlin, Germany","street_number":"1","street":"Melli-Beese-Ring","city":"Schönefeld","county":"","state":"Brandenburg","country_iso":"DE","country":"Germany","postal_code":"12529","phone":"+49 30 60911150","latitude":52.362514,"longitude":13.502978,"uct":120,"website":"http://www.berlin-airport.de/de/ber/index.php","stripped_name":"Berlin Brandenburg  (in construction)"},{"id":640,"iata":"BES","icao":"LFRB","name":"Brest Bretagne Airport","location":"Brest, Brittany, France","street_number":"","street":"","city":"Guipavas","county":"Finistère","state":"Bretagne","country_iso":"FR","country":"France","postal_code":"29490","phone":"+33 2 98 32 86 00","latitude":48.44764,"longitude":-4.4178324,"uct":120,"website":"http://www.brest.aeroport.bzh/","stripped_name":"Brest Bretagne"},{"id":641,"iata":"BET","icao":"PABE","name":"Bethel Airport","location":"Bethel, Alaska, United States","street_number":"","street":"","city":"Bethel","county":"Bethel","state":"Alaska","country_iso":"US","country":"United States","postal_code":"99559","phone":"","latitude":60.77972,"longitude":-161.83778,"uct":-480,"website":"","stripped_name":"Bethel"},{"id":642,"iata":"BEU","icao":"YBIE","name":"Bedourie Airport","location":"Bedourie, Queensland, Australia","street_number":"","street":"","city":"Bedourie","county":"Diamantina Shire","state":"Queensland","country_iso":"AU","country":"Australia","postal_code":"4829","phone":"","latitude":-24.352947,"longitude":139.46375,"uct":600,"website":"","stripped_name":"Bedourie"},{"id":644,"iata":"BEW","icao":"FQBR","name":"Beira Airport","location":"Beira, Mozambique","street_number":"Rua 4030","street":"Código Postal 1213","city":"Cidade da Beira","county":"Beira","state":"Sofala","country_iso":"MZ","country":"Mozambique","postal_code":"","phone":"+258 23 301 071","latitude":-19.796824,"longitude":34.9088,"uct":120,"website":"http://www.aeroportos.co.mz/","stripped_name":"Beira"},{"id":646,"iata":"BEY","icao":"OLBA","name":"Beirut–Rafic Hariri International Airport / Beirut Air Base","location":"Beirut, Lebanon","street_number":"","street":"","city":"Beirut","county":"Beirut","state":"Beirut Governorate","country_iso":"LB","country":"Lebanon","postal_code":"","phone":"+961 1 628 000","latitude":33.819374,"longitude":35.491203,"uct":180,"website":"http://www.beirutairport.gov.lb/","stripped_name":"Beirut–Rafic Hariri   / Beirut Air Base"},